약국명,지역,주소,개설일자,경도,위도
영미약국,용인처인구,경기도 용인시 처인구 금령로 73 (김량장동),20130701,127.2043559,37.2352302
파랑새약국,인천미추홀구,인천광역시 미추홀구 장천로112번길 3 (숭의동),20130701,126.6565669,37.4629140
새봄약국,용인기흥구,경기도 용인시 기흥구 서천로 121 원희캐슬 110호 (서천동),20130701,127.0727467,37.2371531
헬스팜약국,의정부시,경기도 의정부시 태평로 110 1층 (의정부동),20170710,127.0518480,37.7423707
플러스약국,부천시,"경기도 부천시 상동로 90 313호 (상동, 메가플러스)",20130701,126.7537046,37.5051817
봄약국,인천서구,"인천광역시 서구 중봉대로 588 302-1호 (연희동, 청라센트럴프라자)",20130701,126.6502817,37.5320802
시원약국,고양일산서구,경기도 고양시 일산서구 일산로 523 보성상가 103호 (일산동),20180518,126.7694542,37.6766742
해밀온누리약국,인천남동구,인천광역시 남동구 서창남순환로 56 (서창동),20180906,126.7511151,37.4290505
백화점약국,안산상록구,경기도 안산시 상록구 석호로 292 1층 (본오동),20130701,126.8631112,37.2933492
혜민약국,양주시,경기도 양주시 백석읍 호명로 57 (백석읍),20130715,126.9928716,37.7883156
다정약국,고양일산서구,경기도 고양시 일산서구 일청로 15-1 1층 (일산동),20130712,126.7702687,37.6859421
중앙약국,의정부시,"경기도 의정부시 민락로 210 3층 (민락동, 이마트)",20130715,127.1023779,37.7431936
새안양보룡약국,안양만안구,경기도 안양시 만안구 안양로 259 1층 (안양동),20150701,126.9236301,37.3957263
일산선약국,고양일산서구,"경기도 고양시 일산서구 가좌1로 53 110호 (가좌동, 샤르망프라자)",20130729,126.7189579,37.6875531
우리약국,수원영통구,"경기도 수원시 영통구 센트럴타운로 15 111호 (이의동, 아이플렉스)",20130730,127.0572871,37.2881647
다원약국,성남수정구,경기도 성남시 수정구 산성대로 241 5층 (신흥동),20181101,127.1440896,37.4399478
열린연세약국,인천미추홀구,"인천광역시 미추홀구 토금남로 53 (용현동, 한양프라자 105호)",20130801,126.6380949,37.4508199
국민약국,구리시,경기도 구리시 검배로 104 (수택동),20130801,127.1494178,37.5944455
고읍태양약국,양주시,"경기도 양주시 고읍남로 6-16 107호 (광사동, 광장프라자)",20160321,127.0789293,37.7957045
안녕약국,화성시,"경기도 화성시 용주로 22 2층 (안녕동, 태안농협안녕지점)",20150907,127.0142547,37.2054837
중앙약국,성남분당구,"경기도 성남시 분당구 돌마로 478 102호 (서현동, 효자촌프라자)",20130801,127.1334348,37.3769796
소나무약국,의정부시,경기도 의정부시 장곡로 224 롯데마트장암점 2층 (장암동),20180707,127.0530478,37.7237040
열린온누리약국,시흥시,경기도 시흥시 함송로14번길 13-13 (정왕동),20130801,126.7296148,37.3626898
우리팜아름약국,인천연수구,"인천광역시 연수구 용담로 11 2층 202-1호 (청학동, 시대아파트상가)",20130801,126.6691361,37.4214825
신천지약국,김포시,경기도 김포시 하성면 애기봉로 864 (하성면),20130805,126.6334924,37.7196392
스타파크약국,성남분당구,"경기도 성남시 분당구 정자일로 121 A동 7호 (정자동, 더샵스타파크)",20130731,127.1052642,37.3611713
송도B1약국,인천연수구,"인천광역시 연수구 송도국제대로 165 지하1층 (송도동, 홈플러스 송도점)",20151012,126.6563721,37.3802255
메디팜동탄약국,화성시,경기도 화성시 동탄순환대로20길 118 우성스타파크 B동 107호 (목동),20190305,127.1248249,37.1830112
마석백제약국,남양주시,경기도 남양주시 화도읍 경춘로 1992 203호,20130815,127.3093365,37.6501433
다영약국,수원영통구,"경기도 수원시 영통구 광교중앙로 250 113호 (하동, 더죤프라자)",20130812,127.0673977,37.2924012
우리민들레약국,용인수지구,"경기도 용인시 수지구 현암로 132 107호 (죽전동, C.H리베로I)",20130816,127.1239235,37.3315072
한소망약국,고양일산동구,"경기도 고양시 일산동구 고봉로 20-5 503호의 일부호 (장항동, 포오스프라자)",20130705,126.7651903,37.6642578
햇살온누리약국,인천연수구,인천광역시 연수구 앵고개로104번길 4 준빌딩 104호 (동춘동),20190618,126.6570535,37.4123896
늘희망약국,인천부평구,인천광역시 부평구 일신로14번길 34 (일신동),20130820,126.7438178,37.4842954
스마일약국,양주시,"경기도 양주시 고읍남로 18 가보프라자 1층 101,102호 (광사동)",20190905,127.0794530,37.7949810
광교프라자약국,수원영통구,"경기도 수원시 영통구 센트럴타운로 106 132호 (이의동, 센트럴프라자)",20170206,127.0501672,37.2927325
튼튼약국,수원영통구,"경기도 수원시 영통구 영통로214번길 9 304호 (영통동, 서린프라자)",20151102,127.0576271,37.2466049
마더스약국,화성시,경기도 화성시 봉담읍 효행로 278 1층 (이마트),20130828,126.9721965,37.2225421
이화힐약국,수원장안구,"경기도 수원시 장안구 수성로 315 1층 (정자동, 탑웨딩문화원)",20130828,127.0064929,37.2920625
나무약국,화성시,경기도 화성시 동탄대로시범길 148-22 109호 (청계동),20180910,127.1148912,37.2004724
가산메디칼약국,인천남동구,"인천광역시 남동구 논고개로 71 108호 (논현동, 가산타워)",20130902,126.7268215,37.3980292
종로약국,부천시,"경기도 부천시 소사동로 82 103호,104호 (소사본동)",20130902,126.8039587,37.4732009
이선온누리약국,성남분당구,"경기도 성남시 분당구 대왕판교로606번길 58 2-19A호 (삼평동, 판교 푸르지오월드마크)",20130906,127.1135510,37.3955563
동탄메디칼약국,화성시,경기도 화성시 동탄대로시범길 148-54 3층 303호 (청계동),20151127,127.1137164,37.2005425
실로암약국,인천남동구,"인천광역시 남동구 남동대로 890 101호 (간석동, 탑메디칼빌딩)",20130911,126.7086525,37.4618417
푸른약국,남양주시,경기도 남양주시 화도읍 비룡로 341 (),20171222,127.3038971,37.6814755
프라자약국,파주시,"경기도 파주시 금빛로 24-27 105,106호 (금촌동, 제일메디칼)",20130930,126.7683458,37.7519220
보정 온누리약국,용인기흥구,"경기도 용인시 기흥구 죽전로 20 209호 (보정동, 죽전누리에뜰아파트)",20170307,127.1107808,37.3199559
그린약국,인천남동구,인천광역시 남동구 석산로 131 1층 1호 (간석동),20170410,126.7064164,37.4605000
삼영약국,수원팔달구,경기도 수원시 팔달구 팔달문로3번길 4 (팔달로2가),20131001,127.0178261,37.2777468
하얀약국,광주시,경기도 광주시 광주대로 49 (경안동),20131001,127.2609259,37.4108016
위드유온누리약국,김포시,"경기도 김포시 전원로 1 106호 (장기동, 메디프라자)",20170220,126.6804755,37.6450052
프라자약국,인천서구,인천광역시 서구 원당대로 660 1층 101-1호 (당하동),20131001,126.6742976,37.5932888
근약국,양주시,경기도 양주시  고읍남로 6 (광사동),20131002,127.0801554,37.7956543
새싹약국,수원영통구,"경기도 수원시 영통구 효원로 363 B동 201호 (매탄동, 매탄위브하늘채아파트상가)",20131004,127.0414010,37.2622858
고은약국,인천남동구,인천광역시 남동구 구월말로 117 1층 (만수동),20131007,126.7253528,37.4596791
우리약국,안산상록구,"경기도 안산시 상록구 선진로 112 105(일부)호 (사동, 본오2차아파트 상가)",20131004,126.8526125,37.2806763
중앙약국,시흥시,"경기도 시흥시 대은로 90 101호 (은행동, 에메랄드빌딩)",20131014,126.7983796,37.4447078
신성온누리약국,안성시,경기도 안성시 시장길 52 (서인동),20131011,127.2706233,37.0063056
우리들약국,성남중원구,경기도 성남시 중원구 광명로 330-1 1층 (금광동),20131014,127.1627151,37.4453475
신세계온누리약국,안양동안구,"경기도 안양시 동안구 임곡로 62 116호 (비산동, 임곡프라자)",20131021,126.9337519,37.4048409
아산약국,이천시,경기도 이천시 애련정로87번길 57 (창전동),20131029,127.4470682,37.2785483
신신약국,김포시,"경기도 김포시 김포한강2로23번길 14 104호 (장기동, 강변프라자)",20151102,126.6788216,37.6422650
소망약국,인천부평구,"인천광역시 부평구 열우물로 45 103호 (십정동, 삼정빌딩)",20131101,126.7004353,37.4720985
드림약국,수원권선구,경기도 수원시 권선구 경수대로 358 (권선동),20131101,127.0234255,37.2583243
우리들약국,수원장안구,"경기도 수원시 장안구 금당로 42 1층 101호 (조원동, 그린프라자)",20170213,127.0157714,37.3028839
삼성약국,수원팔달구,경기도 수원시 팔달구 경수대로479번길 10-11 (인계동),20131101,127.0267025,37.2697351
분당새봄약국,성남분당구,"경기도 성남시 분당구 중앙공원로40번길 4 202-2호 (서현동, 현대카스올림픽골드파크)",20131104,127.1294215,37.3803092
별약국,고양덕양구,"경기도 고양시 덕양구 삼송로 12 112호 (원흥동, 반도유스퀘어)",20170406,126.8755360,37.6495662
수아약국,부천시,"경기도 부천시 소향로37번길 31-15 107호 (상동, 한림프라자)",20131101,126.7513027,37.5047581
훼미리약국,인천남동구,인천광역시 남동구 독점로3번길 26 교동빌딩 (구월동),20131104,126.7092141,37.4501311
보건약국,동두천시,경기도 동두천시 중앙로 165 (생연동),20131101,127.0521494,37.8962905
유니약국,수원권선구,경기도 수원시 권선구 권광로 68 1층 (권선동),20131104,127.0290642,37.2539941
정문약국,성남분당구,"경기도 성남시 분당구 중앙공원로40번길 42 101호 (서현동, 우성종합상가 49동)",20131104,127.1323782,37.3781753
열린약국,인천미추홀구,인천광역시 미추홀구 낙섬중로 37 1층 (용현동),20190825,126.6800777,37.5440207
스마트약국,수원권선구,경기도 수원시 권선구 금곡로 100 107호 (금곡동),20160308,126.9412749,37.2738674
한우리약국,의왕시,경기도 의왕시 부곡시장길 40 (삼동),20131118,126.9528796,37.3183291
중앙온누리약국,인천계양구,인천광역시 계양구 효서로 300 삼호프라자 107호 (작전동),20190807,126.7295475,37.5277216
한미약국,하남시,경기도 하남시 신장로 141 (덕풍동),20131118,127.2026024,37.5386275
서울무지개약국,오산시,경기도 오산시 경기대로 209 (원동),20131115,127.0731005,37.1434245
지우약국,고양덕양구,경기도 고양시 덕양구 무원로6번길 20 M타워 503호 (행신동),20130909,126.8337023,37.6134273
조일약국,남양주시,"경기도 남양주시 도농로 24 사랑관-215호 (도농동, 부영애시앙)",20131201,127.1585900,37.6087966
김약국,의정부시,경기도 의정부시 평화로 152 1층 (호원동),20131129,127.0483552,37.7053900
발안남서약국,화성시,경기도 화성시 향남읍 발안남로55번길 27 101호 (센트럴월드),20131202,126.9049585,37.1299749
송도신세계약국,인천연수구,"인천광역시 연수구 해돋이로 107 H동 8호 (송도동, 더샵퍼스트월드)",20131129,126.6478318,37.3911869
꽃피는약국,성남분당구,"경기도 성남시 분당구 성남대로926번길 6 116호 (야탑동, 대덕프라자)",20131202,127.1298637,37.4121577
튼튼약국,김포시,경기도 김포시 김포한강8로 163 한강스퀘어빌딩 1층 109호 (마산동),20180213,126.6433899,37.6370239
김포홈플러스약국,김포시,"경기도 김포시 중봉로 14 지하1층 (감정동, 홈플러스김포점)",20150826,126.6986085,37.6238474
분당서현약국,성남분당구,경기도 성남시 분당구 중앙공원로39번길 49 서현 지엔느 202호 (서현동),20180521,127.1247778,37.3837934
영종길온누리약국,인천중구,인천광역시 중구 하늘달빛로 94 113호 (중산동),20180523,126.5574834,37.4873049
동성약국,용인수지구,"경기도 용인시 수지구 용구대로 2736 1층 (죽전동, 영일죽전빌딩)",20160901,127.1093338,37.3299223
드림약국,의정부시,경기도 의정부시 시민로 117 1층 (의정부동),20190527,127.0483933,37.7387159
인계햇살약국,수원팔달구,경기도 수원시 팔달구 인계로 53 1층 (인계동),20131209,127.0237317,37.2695076
농민약국,평택시,경기도 평택시 안중읍 안현로 421 (),20131213,126.9313770,36.9875168
한결약국,하남시,경기도 하남시 신평로 70 1층 (신장동),20131216,127.2059194,37.5396337
송정우리약국,이천시,경기도 이천시 증신로291번길 133 (송정동),20131216,127.4333634,37.2950770
효성일층약국,인천계양구,"인천광역시 계양구 안남로 548 132호 (효성동, 효성프라자)",20131216,126.7110687,37.5319545
인천메디칼약국,인천남동구,"인천광역시 남동구 인하로 497-5 103호 (구월동, 푸른세상안과)",20131216,126.7015939,37.4435957
한결온누리약국,고양일산동구,"경기도 고양시 일산동구 강송로 169 102호 (마두동, 한주프라자 )",20131223,126.7836499,37.6537853
맘스케어약국,성남분당구,"경기도 성남시 분당구 서현로180번길 19 101-27,29호 (서현동, 비전월드)",20131223,127.1224588,37.3873372
백화점약국,포천시,경기도 포천시 일동면 화동로 1046-2 1층,20131218,127.3175786,37.9567237
다래약국,용인기흥구,"경기도 용인시 기흥구 삼성2로 95 3층 (농서동, 세미콘프라자)",20131223,127.0818836,37.2248889
종로프라자약국,인천남동구,인천광역시 남동구 백범로 372 수피아타워 101호 (간석동),20190813,126.7099220,37.4665194
이화약국,용인기흥구,"경기도 용인시 기흥구 보정로 32 2층 207-1호 (보정동, 지젤스포츠클럽)",20151116,127.1110392,37.3140491
착한약국,김포시,경기도 김포시 양촌읍 양곡2로 50 (),20131220,126.6275139,37.6556786
우리팜약국,인천계양구,인천광역시 계양구 계양대로 53 휘림빌딩 1층 (작전동),20180105,126.7221226,37.5285809
우리약국,하남시,"경기도 하남시 덕산로 33 108호 (덕풍동, 한솔리치빌1단지아파트)",20131227,127.1978217,37.5325678
녹십자약국,평택시,경기도 평택시 중앙로 2 (통복동),20161213,127.0835354,36.9953991
조은약국,의정부시,경기도 의정부시 평화로 323 102호 (호원동),20140219,127.0472936,37.7208747
큰길약국,용인처인구,경기도 용인시 처인구 중부대로 1154 (삼가동),20140228,127.1731969,37.2393888
민락 길 약국,의정부시,경기도 의정부시 오목로205번길 1 (민락동),20161215,127.0981047,37.7446357
뉴메디홀약국,부천시,경기도 부천시 경인로110번길 13 1층 (송내동),20161114,126.7679961,37.4834973
이안약국,성남중원구,경기도 성남시 중원구 성남대로1130번길 3 1층 (성남동),20140303,127.1297959,37.4307297
늘푸른약국,인천남동구,"인천광역시 남동구 석정로 571 102호 (간석동, 정은아파트)",20140227,126.6986923,37.4670316
이층종로약국,안산상록구,"경기도 안산시 상록구 샘골로 140 2층 203호 (본오동, 경남빌딩)",20160601,126.8633178,37.2962276
은하약국,부천시,"경기도 부천시 길주로 199 111호 (중동, 굿모닝프라자)",20140306,126.7646848,37.5050442
푸른샘약국,의정부시,"경기도 의정부시 시민로 31 (의정부동, 네오타워빌딩)",20160901,127.0387126,37.7385523
연세약국,안산단원구,"경기도 안산시 단원구 중앙대로 421 107호 (신길동, 모리아오피스텔)",20140310,126.7865042,37.3300256
청우약국,남양주시,"경기도 남양주시 경춘로 368 111호 (가운동, 브릭스타워)",20140312,127.1556209,37.6046106
종로프라자약국,남양주시,경기도 남양주시 금곡로 50 대성빌딩 (금곡동),20190118,127.2085906,37.6338078
신양곡프라자약국,김포시,경기도 김포시 양촌읍 양곡로 530 1층,20180504,126.6245605,37.6551778
중앙약국,양주시,경기도 양주시  회정로 134 (덕정동),20140318,127.0684721,37.8371569
가평온누리약국,가평군,경기도 가평군 가평읍 가화로 113 (가평읍),20140320,127.5133515,37.8297489
갈매365약국,구리시,경기도 구리시 갈매중앙로 83 107호 (갈매동),20171201,127.1172726,37.6320624
코코온누리약국,고양덕양구,"경기도 고양시 덕양구 동세로 88 102호 (삼송동, 오케이세솔프라자)",20140324,126.8836960,37.6502212
샘약국,광주시,경기도 광주시 오포읍 신현로 100-3 (오포읍),20140327,127.1577512,37.3597390
검단튼튼약국,인천서구,인천광역시 서구 청마로19번길 20 103호 (당하동),20140324,126.6726703,37.5920110
유림약국,남양주시,경기도 남양주시 와부읍 덕소로 180 312호 (두산위브상가),20140331,127.2152727,37.5799356
이화팜약국,남양주시,경기도 남양주시 와부읍 덕소로 180 214호 (두산위브상가),20140402,127.2152727,37.5799356
다온약국,수원권선구,경기도 수원시 권선구 서부로1596번길 10 1층 105호 (고색동),20170919,126.9765597,37.2515019
덕소프라자약국,남양주시,경기도 남양주시 와부읍 수레로 34 1층,20140331,127.2158940,37.5872899
광장약국,성남중원구,경기도 성남시 중원구 성남대로 1152 1층 (성남동),20140401,127.1294515,37.4327076
동인당약국,인천부평구,인천광역시 부평구 체육관로 30 삼산동 이리옴프라자 1층 103호 (삼산동),20190114,126.7348157,37.5083060
한미약국,인천미추홀구,인천광역시 미추홀구 석바위로 120 (주안동),20140401,126.6860614,37.4597576
가까운온누리약국,안산단원구,경기도 안산시 단원구 광덕대로 181 BYC빌딩 1층 (고잔동),20180102,126.8293109,37.3127957
새로운건강약국,화성시,"경기도 화성시 동탄반석로 204 102호 (반송동, 제일프라자)",20140407,127.0728210,37.2066737
삼송제일약국,고양덕양구,"경기도 고양시 덕양구 권율대로 886 102호 (신원동, 호평프라자)",20140414,126.8895596,37.6627389
중동튼튼약국,부천시,경기도 부천시 계남로 127 202호 (중동),20140414,126.7629996,37.5084857
프라자약국,동두천시,경기도 동두천시 중앙로 211 (생연동),20040702,127.0524940,37.9005604
송도바른약국,인천연수구,"인천광역시 연수구 신송로 164 1층 104호 (송도동, 아데니움프라자)",20150512,126.6488325,37.3982099
어진약국,성남중원구,경기도 성남시 중원구 둔촌대로 272 1층 (하대원동),20141022,127.1483997,37.4288256
코끼리온누리약국,고양일산서구,경기도 고양시 일산서구 중앙로 1456 서현프라자 108호 (주엽동),20141029,126.7590386,37.6715373
한마음약국,부산북구,부산광역시 북구 시랑로 159 한미빌딩 1층 (구포동),20180102,129.0127085,35.1962205
터미널약국,구미시,경상북도 구미시 송원동로 67 (원평동),20171228,128.3506497,36.1227473
올리브약국,대구중구,대구광역시 중구 달성로 37 계성빌딩 1층 (대신동),20180101,128.5818127,35.8684351
매일여는약국,마포구,서울특별시 마포구 월드컵북로 396 누리꿈스퀘어 B1094호 (상암동),20171226,126.8898316,37.5794648
명성약국,양산시,경상남도 양산시 양주로 129 리얼프라자 103호 (중부동),20180101,129.0317648,35.3366998
한우리약국,부산기장군,부산광역시 기장군 기장읍 읍내로 107 (),20171218,129.2160044,35.2452690
편한이웃약국,부산해운대구,부산광역시 해운대구 선수촌로 7 반여메디컬센터 102호 (반여동),20171218,129.1185153,35.1944428
화신약국,여수시,전라남도 여수시 여문2로 73 코아빌딩 1-7호 (문수동),20171219,127.6929933,34.7546640
이약국,안양만안구,경기도 안양시 만안구 안양로292번길 3 1층 (안양동),20171212,126.9220586,37.3986376
새싹약국,부산진구,부산광역시 부산진구 새싹로 24 1층 (부전동),20180112,129.0576069,35.1599765
바른약국,순천시,전라남도 순천시 조례못등길 16 금당빌딩 1층 (조례동),20180110,127.5263787,34.9542063
비타약국,창원마산합포구,경상남도 창원시 마산합포구 삼호로 45 (산호동),20180108,128.5853744,35.2214516
오약국,인천남동구,인천광역시 남동구 서창남순환로 140 1층 105호 (서창동),20180110,126.7436649,37.4279312
믿음약국,강릉시,강원도 강릉시 율곡로 2791 (성남동),20180129,128.9009344,37.7540661
현대약국,성동구,서울특별시 성동구 독서당로 384 중앙노인정 102호 (응봉동),20180201,127.0310936,37.5499106
천사약국,동대문구,서울특별시 동대문구 왕산로26길 13 1층 (용두동),20180201,127.0367067,37.5774463
편안한약국,부산진구,부산광역시 부산진구 가야대로 786 (부전동),20180201,129.0574871,35.1573815
바른약국,부산연제구,부산광역시 연제구 월드컵대로 186 (거제동),20180201,129.0765202,35.1881539
늘편한약국,청주흥덕구,충청북도 청주시 흥덕구 덕암로114번길 40 아이타워빌딩 104호일부호 (봉명동),20180126,127.4607008,36.6500605
삼성약국,음성군,충청북도 음성군 삼성면 금일로 666 (),20180201,127.5181785,37.0144539
정성약국,광주광산구,광주광역시 광산구 사암로 277 1층 (월곡동),20180201,126.8088111,35.1692366
알파약국,화성시,경기도 화성시 향남읍 상신하길로298번길 11 지비앤티타워 1동 105호,20180123,126.9110534,37.1147838
동신약국,성남수정구,경기도 성남시 수정구 수정로 139 (태평동),20180201,127.1356034,37.4422668
제일약국,고양일산동구,경기도 고양시 일산동구 일산로 214 화성프라자 1층 101호 (마두동),20190627,126.7898360,37.6555123
우리사랑약국,은평구,"서울특별시 은평구 은평로 108 1층 103호 (응암동, 메트로럭스주상복합APT)",20180213,126.9198793,37.5997236
세일약국,여수시,전라남도 여수시 통제영2길 8 1층 (교동),20180214,127.7329912,34.7408938
바른약국,울산남구,울산광역시 남구 남중로 37 1층 105호 (삼산동),20180213,129.3472329,35.5377209
구로약국,구로구,서울특별시 구로구 구로동로 147 MEDI FLOWER 147 1층 (구로동),20180212,126.8834138,37.4916644
와이약국,강남구,서울특별시 강남구 강남대로 408 YBM강남센터 1층 104호 (역삼동),20190904,127.0275554,37.4992268
다인온누리약국,강서구,서울특별시 강서구 마곡중앙6로 16 마곡지엠지타워 110호 (마곡동),20180213,126.8290062,37.5604016
진산종로약국,금산군,충청남도 금산군 진산면 읍내로 68 (),20180226,127.3703630,36.1437140
기운찬판도라약국,광명시,경기도 광명시 광명로 907 광명빌딩 (광명동),20180302,126.8543336,37.4799328
천마약국,경산시,경상북도 경산시 대학로 333 (조영동),20180312,128.7572309,35.8397984
다온약국,대구남구,대구광역시 남구 봉덕로 90 1층 (봉덕동),20180306,128.6003513,35.8444698
마음약국,안산단원구,경기도 안산시 단원구 광덕동로 75 사또타워 105-2호 (고잔동),20180308,126.8324497,37.3111810
서울수약국,중구,서울특별시 중구 만리재로 177 한라비발디 센트랄상가 9호 (만리동2가),20180321,126.9652534,37.5549223
건강한약국,부산동래구,부산광역시 동래구 중앙대로1325번길 29 (온천동),20180320,129.0761560,35.2054321
올바른약국,광주광산구,광주광역시 광산구 하남대로261번길 8 (신가동),20180315,126.8226402,35.1800095
린네약국,양평군,경기도 양평군 강상면 학곡길 58-14 (강상면),20171218,127.4680860,37.4761369
숭인약국,강북구,서울특별시 강북구 도봉로 59 1층 (미아동),20180920,127.0296793,37.6142243
호약국,원주시,강원도 원주시 서원대로 383 한신프라자 119호 (개운동),20171226,127.9485496,37.3319950
기린약국,계룡시,충청남도 계룡시 두마면 사계로 46 성원프라자 102호,20171226,127.2649258,36.2681790
해솔약국,고양덕양구,경기도 고양시 덕양구 화중로 54 서일빌딩 110호 (화정동),20180122,126.8307638,37.6319320
에메랄드약국,강남구,서울특별시 강남구 도산대로 122 에메랄드타워 1층 (논현동),20180207,127.0221405,37.5168540
도토약국,진주시,경상남도 진주시 석갑로53번길 28 들말대경아파트 상가301동 101호 (평거동),20180208,128.0631118,35.1749987
금성약국,부산금정구,부산광역시 금정구 금사로 95 (금사동),20180210,129.1122306,35.2210498
한마음약국,횡성군,강원도 횡성군 갑천면 청정로 274 (),20171219,128.1089433,37.5584176
행복나눔약국,홍성군,충청남도 홍성군 홍성읍 조양로 221-1 (),20180208,126.6741383,36.6000207
보건정문약국,대구북구,대구광역시 북구 팔거천동로 209 1층 (동천동),20180208,128.5576840,35.9427484
새롬약국,성북구,서울특별시 성북구 장위로 58 1층 (장위동),20180314,127.0429838,37.6138426
힐링약국,용산구,서울특별시 용산구 신흥로 53 1층 (용산동2가),20180319,126.9875404,37.5432790
송탄효자약국,평택시,경기도 평택시 탄현로 317 (신장동),20180316,127.0552767,37.0807513
편안한약국,인천서구,인천광역시 서구 원적로27번길 11 (가좌동),20180316,126.6788680,37.4893876
태평양약국,서초구,"서울특별시 서초구 중앙로 582 103호 (우면동, 서초타워)",20171023,127.0153320,37.4571487
대명약국,금천구,"서울특별시 금천구 벚꽃로 298 104호 (가산동, 대륭포스트타워6차)",20170717,126.8837813,37.4814002
하늘약국,양천구,서울특별시 양천구 중앙로 298 문화트윈타워 101호 (신정동),20190726,126.8518916,37.5228188
우리들약국,의정부시,경기도 의정부시 신흥로 141-1 1층 (호원동),20150105,127.0433496,37.7288009
한울약국,고양덕양구,"경기도 고양시 덕양구 화중로 60 302호 (화정동, 화정종합상가)",20150106,126.8308508,37.6323973
논현온누리약국,인천남동구,인천광역시 남동구 남동서로236번길 30 논현2차푸르지오시티 114호 (논현동),20171218,126.6951115,37.4095690
현약국,구리시,"경기도 구리시 갈매순환로 194 (갈매동, 신영프라자)",20170111,127.1218072,37.6365978
연두약국,용인수지구,"경기도 용인시 수지구 신봉1로 165 (신봉동, 동광프라자 203호)",20150310,127.0686200,37.3277938
큰길약국,의정부시,경기도 의정부시 흥선로 137 (의정부동),20150309,127.0425276,37.7416923
조은약국,의정부시,"경기도 의정부시 장곡로 554 103호 (신곡동, 광장빌딩)",20150313,127.0643869,37.7487164
우리약국,양주시,"경기도 양주시 삼숭로38번길 80 3층 2313호 (삼숭동, 양주자이프라자)",20170403,127.1058660,37.7961998
하나로약국,광양시,전라남도 광양시 중마중앙로 75 (중동),20180709,127.6977335,34.9369676
한사랑약국,목포시,전라남도 목포시 백년대로 391 1층 (옥암동),20101022,126.4289425,34.8082908
도담약국,성남중원구,경기도 성남시 중원구 산성대로 360 지성빌딩 1층 103호 (중앙동),20190909,127.1564041,37.4442781
허브약국,수원장안구,"경기도 수원시 장안구 서부로 2139 6019호 (율전동, SK허브블루)",20101026,126.9716347,37.2994534
신나는인덕한약국,순천시,전라남도 순천시 연향번영4길 31 (연향동),20030516,127.5177315,34.9469278
튼튼약국,고성군,경상남도 고성군 거류면 거류로 642 (거류면),20140624,128.4045030,34.9882916
새천년건강약국,안산상록구,"경기도 안산시 상록구 도매시장로 41 (이동, 장현빌딩)",20150831,126.8595021,37.3105355
대치참약국,강남구,"서울특별시 강남구 남부순환로 2927 대치 클래시아 204호,205호 (대치동)",20171226,127.0603963,37.4935668
하나약국,부산기장군,부산광역시 기장군 기장읍 차성로 436 1층,20171226,129.2177752,35.2544685
새보령약국,보령시,충청남도 보령시 한내로 75 (동대동),20190703,126.6112938,36.3447200
발ⓔ편한 세잘 약국,과천시,경기도 과천시 문원청계2길 4 1층 (문원동),20170921,127.0085894,37.4241085
태양약국,하남시,경기도 하남시 신장로 126 동부신협빌딩 1층 (신장동),20181213,127.2043135,37.5383329
호호약국,관악구,서울특별시 관악구 남부순환로 1595 1층 (신림동),20180108,126.9277222,37.4842663
서충주약국,충주시,충청북도 충주시 중앙탑면 원앙9길 18-2 센텀빌딩 지1층,20180102,127.8256134,37.0168453
진심약국,의정부시,경기도 의정부시 호국로 1319 남평프라자 1층 105호 (의정부동),20180108,127.0507776,37.7439301
으뜸약국,수원팔달구,경기도 수원시 팔달구 세지로 349 (지동),20180108,127.0252125,37.2819686
보건약국,부산사하구,부산광역시 사하구 하신번영로 127 (신평동),20180127,128.9600048,35.0941110
윤슬약국,춘천시,강원도 춘천시 후석로 7 1층 (석사동),20180124,127.7389389,37.8563129
영동큰사랑약국,영동군,충청북도 영동군 영동읍 중앙로 41 모아빌딩,20190904,127.7776136,36.1756619
아크로약국,대구수성구,"대구광역시 수성구 달구벌대로 2570 2층 204호 (만촌동, 수성 아크로타워)",20180123,128.6441067,35.8583902
화북남문약국,제주시,제주특별자치도 제주시 일주동로 185 (화북일동),20180125,126.5652301,33.5191244
하나약국,하남시,경기도 하남시 미사강변동로 73 미사강변 노블레스 112호 (망월동),20180119,127.1930378,37.5615554
종각팜약국,종로구,서울특별시 종로구 종로 68 대한기독교서회 1층 (종로2가),20180124,126.9849451,37.5699064
상계종로약국,노원구,서울특별시 노원구 한글비석로 363 1층 (중계동),20180129,127.0744474,37.6579937
그린약국,송파구,서울특별시 송파구 올림픽로 119 잠실파인애플상가 2층 60~61호 (잠실동),20180129,127.0842018,37.5120894
튼튼약국,대구중구,대구광역시 중구 이천로 234-1 (봉산동),20180129,128.5994024,35.8620319
하늘약국,고양일산동구,"경기도 고양시 일산동구 위시티4로 46 상가동 302, 303호 (식사동, 위시티일산자이2단지아파트)",20180129,126.8159951,37.6823920
153온누리약국,성동구,"서울특별시 성동구 왕십리로 410 K동 106호 (하왕십리동, 센트라스)",20180201,127.0247865,37.5665508
아이맘약국,부산해운대구,부산광역시 해운대구 해운대로 794 엘리움 701호 (좌동),20190429,129.1757589,35.1688582
청춘약국,양구군,강원도 양구군 양구읍 양구새싹로 7-3 (),20180129,127.9860487,38.1020906
세종코코약국,세종시,세종특별자치시 다정중앙로 52 페스티발2 1층 107호 (다정동),20180112,127.2492567,36.4951811
7층약국,부산사하구,부산광역시 사하구 낙동남로 1412 경부빌딩 7층 (하단동),20180219,128.9661132,35.1057963
신선약국,대전유성구,대전광역시 유성구 노은동로 161 1층 (지족동),20180302,127.3223890,36.3748210
중방약국,경산시,경상북도 경산시 중방로 17 1층 중방약국 (중방동),20180305,128.7360760,35.8303321
평리제일약국,대구서구,대구광역시 서구 서대구로 192 1층 (평리동),20180302,128.5552372,35.8750499
제주토마토약국,제주시,"제주특별자치도 제주시 도령로 73 1층 101호 (연동, 연동 펠리체)",20180302,126.4859156,33.4900876
타워온누리약국,인천연수구,인천광역시 연수구 센트럴로 263 송도국제업무단지 C8-2블럭 업무복합시설 3층 (송도동),20190513,126.6339426,37.3980386
푸른약국,의정부시,경기도 의정부시 효자로 10 1층 105호 (민락동),20180302,127.0859945,37.7434209
가까운약국,충주시,충청북도 충주시 중앙로 67 신천지타운 102호 (충의동),20180305,127.9308493,36.9731240
해동약국,진주시,경상남도 진주시 서장대로 263 1층 (이현동),20180302,128.0621105,35.1918374
마트약국,김해시,경상남도 김해시 상동면 동북로 481 (),20180305,128.9678672,35.3156123
수온누리약국,이천시,경기도 이천시 장호원읍 장터로 45-15 (),20180305,127.6294010,37.1166995
동산약국,오산시,경기도 오산시 내삼미로79번길 11 206호 (수청동),20150323,127.0652774,37.1690298
메디케어약국,고양덕양구,경기도 고양시 덕양구 동송로 20 삼송농산물종합유통센터 2층 (동산동),20180209,126.8987219,37.6488218
우리안약국,영등포구,서울특별시 영등포구 영신로34길 5 1층 (영등포동4가),20180312,126.9018257,37.5200503
메디웰 자연 약국,광주남구,광주광역시 남구 제석로 104 202동 상가 지하 1층 (봉선동),20171214,126.9074623,35.1237104
광명약국,대구수성구,대구광역시 수성구 들안로 395-1 범어빌딩 1층 (범어동),20171215,128.6178652,35.8654679
메디팜이화약국,화성시,경기도 화성시 병점1로 221 화인메디컬프라자 105호 (진안동),20171214,127.0418071,37.2136177
이레약국,전주덕진구,전라북도 전주시 덕진구 호성3길 11 (호성동1가),20171221,127.1512068,35.8607143
이동약국,포항남구,경상북도 포항시 남구 포스코대로 144 (대잠동),20140602,129.3414690,36.0255358
수서역약국,강남구,서울특별시 강남구 광평로 270 수서역 339-111호 (수서동),20180102,127.1018592,37.4873890
동남약국,중랑구,서울특별시 중랑구 신내로 45 해성빌딩 1층 (신내동),20180108,127.0955677,37.6031473
약산약국,부산진구,부산광역시 부산진구 가야대로 781-1 (부전동),20180108,129.0571111,35.1580181
동서약국,당진시,충청남도 당진시 당진중앙2로 117-8 동서약국 (읍내동),20180108,126.6310564,36.8947133
신방약국,천안동남구,충청남도 천안시 동남구 풍세로 656 A동 1층 (신방동),20180108,127.1349676,36.7704240
동피랑약국,통영시,경상남도 통영시 동문로 3-1 (태평동),20180108,128.4243066,34.8463466
조아약국,김포시,경기도 김포시 양도로 23 오성프라자6 1층 109호 (풍무동),20180104,126.7251024,37.6067399
마리 온누리 약국,이천시,경기도 이천시 경충대로 2564 (중리동),20180105,127.4481202,37.2750877
홈케어하나약국,서대문구,서울특별시 서대문구 통일로39가길 10-2 1층 (홍제동),20180129,126.9436224,37.5886020
우리보건약국,중랑구,서울특별시 중랑구 사가정로51길 45 우리보건약국 (면목동),20180129,127.0877839,37.5828997
행복약국,부산진구,부산광역시 부산진구 새싹로 240-1 (초읍동),20180123,129.0485340,35.1774936
참솔온누리약국,부천시,경기도 부천시 부천로 108 참솔빌딩 101호 (원미동),20180125,126.7852232,37.4938104
봄빛약국,영등포구,서울특별시 영등포구 국회대로70길 12 대산빌딩 1층 101호 (여의도동),20180313,126.9198852,37.5293678
우리약국,제천시,충청북도 제천시 청전대로 171 (청전동),20180312,128.2162914,37.1519932
이화진약국,아산시,"충청남도 아산시 문화로 257-10 1층 108호 (권곡동, 권곡한성하우시스)",20180312,127.0156011,36.7902933
황약국,인천부평구,인천광역시 부평구 마장로 82 현대다섬프라자 103호 (십정동),20180314,126.7082989,37.4860721
봄봄약국,강동구,서울특별시 강동구 명일로 248 1층 (길동),20180316,127.1473025,37.5407774
대방한약국,대구중구,대구광역시 중구 남성로 9 1층 (남성로),20180313,128.5883759,35.8688155
닥터주약국,안양동안구,"경기도 안양시 동안구 벌말로 126 119호 (관양동, 오비즈타워)",20150414,126.9702881,37.3995300
거모보룡약국,시흥시,경기도 시흥시 군자로 520 (거모동),20140101,126.7848874,37.3438500
메디팜우리약국,인천계양구,"인천광역시 계양구 장제로 929 101호 (병방동, 돌샘프라자)",20131231,126.7416685,37.5494557
어울림온누리약국,고양덕양구,경기도 고양시 덕양구 고양대로1384번길 7-5 105호 (성사동),20131223,126.8379197,37.6538130
정문약국,인천부평구,인천광역시 부평구 부평대로 171-5 (청천동),20140102,126.7204138,37.5065823
한빛약국,성남수정구,"경기도 성남시 수정구 수정로 175 107호 (태평동, 동일빌딩)",20140102,127.1392495,37.4434433
상록수약국,안양만안구,경기도 안양시 만안구 삼덕로 12 (안양동),20140102,126.9240613,37.3936679
염광플러스약국,용인수지구,경기도 용인시 수지구 동천로 137 4층 404~406호 (동천동),20140102,127.0888605,37.3372684
이층약국,수원영통구,"경기도 수원시 영통구 봉영로 1623 206-1호 (영통동, 드림피아빌딩)",20160711,127.0747223,37.2559362
열매약국,인천남동구,인천광역시 남동구 남동대로 743 1층 (구월동),20140113,126.7071862,37.4487381
한빛약국,광주시,경기도 광주시 초월읍 경충대로 926 1층,20140113,127.3114747,37.3650983
제니스약국,고양일산서구,"경기도 고양시 일산서구 일현로 97-11 1층 109-B호 (탄현동, 일산 위브더제니스)",20140114,126.7628568,37.6940172
필약국,김포시,경기도 김포시 김포한강4로 530 우승프라자 104호 (구래동),20190717,126.6249941,37.6462743
부영이화약국,남양주시,"경기도 남양주시 도농로 24 209호 (다산동, 부영애시앙)",20140117,127.1585900,37.6087966
하이약국,고양일산동구,경기도 고양시 일산동구 고양대로 757 (중산동),20140120,126.7801454,37.6826539
다온약국,용인수지구,경기도 용인시 수지구 광교중앙로 294 108호 (상현동),20160125,127.0692005,37.2961355
건강백세약국,성남분당구,"경기도 성남시 분당구 돌마로 43 102호 (금곡동, 메디파크빌딩)",20140124,127.1066794,37.3503551
늘푸른약국,인천부평구,인천광역시 부평구 마장로399번길 4 (청천동),20140128,126.7036387,37.5138788
학익열린약국,인천미추홀구,인천광역시 미추홀구 매소홀로 466 (학익동),20140202,126.6736348,37.4393615
에스온누리약국,남양주시,경기도 남양주시 진접읍 금강로 1524 1층,20171121,127.1928803,37.7265306
하나약국,광주시,"경기도 광주시 경충대로1422번길 12-1 104호 (쌍령동, 동성CMA상가)",20140203,127.2766344,37.3973012
참좋은약국,하남시,경기도 하남시 신장로 170 1층 (덕풍동),20140203,127.2006773,37.5407440
친절한 해든약국,용인수지구,"경기도 용인시 수지구 손곡로 100 111,112호 (동천동, 훼미리프라자)",20160321,127.0916402,37.3363735
365건강약국,인천계양구,인천광역시 계양구 장제로 867 (임학동),20140209,126.7380684,37.5447538
딸기온누리약국,화성시,"경기도 화성시 경기대로 990 101동 107호 (병점동, SK뷰상가)",20140210,127.0384625,37.2048846
꿈나무약국,의왕시,"경기도 의왕시 포일로 43 402-1호 (내손동, 대림프라자)",20140212,126.9774361,37.3900442
신연세약국,화성시,경기도 화성시 봉담읍 가마골길 37 (),20190430,126.9400044,37.1989264
경희궁약국,화성시,"경기도 화성시 삼성전자로 1-1 (반월동, 부품연구동)",20140219,127.0701206,37.2252184
센타약국,수원권선구,경기도 수원시 권선구 삼천병마로1598번길 32 대유빌딩 303호 (오목천동),20190617,126.9652535,37.2457388
새롬약국,수원권선구,경기도 수원시 권선구 권선로 532 (세류동),20140224,127.0096566,37.2631489
설약국,제주시,제주특별자치도 제주시 건주로 31 한라신협 삼화지점 1층 (도련일동),20180221,126.5809828,33.5167785
시티약국,안산단원구,경기도 안산시 단원구 선부광장로 23 안산세이브시티 1층 일부호 (선부동),20190607,126.8095657,37.3362382
365조은약국,시흥시,경기도 시흥시 목감중앙로 47 골든프라자 101호 (조남동),20180219,126.8547354,37.3735183
오늘약국,파주시,경기도 파주시 문산읍 방촌로 1729 (),20180222,126.7848445,37.8670679
대화하이약국,고양일산서구,경기도 고양시 일산서구 중앙로 1576 태진프라자 307호 (대화동),20190819,126.7472219,37.6767275
역삼오늘약국,강남구,서울특별시 강남구 테헤란로26길 10 성보빌딩 2층 (역삼동),20180227,127.0358567,37.4996461
종로수약국,종로구,서울특별시 종로구 종로 226 송화빌딩 1층 (종로5가),20190327,127.0028488,37.5707761
대양약국,대구북구,대구광역시 북구 태전로7길 2 1층 (태전동),19670928,128.5441304,35.9234068
약손약국,대구북구,대구광역시 북구 학정로 38 1층 (태전동),20040508,128.5468781,35.9132694
반야월인제약국,대구동구,대구광역시 동구 율하동로24길 39 (신기동),20071102,128.7068128,35.8696955
국민약국,경산시,경상북도 경산시 하양읍 하양로 106 (하양읍),20010605,128.8191606,35.9135707
서울약국,대구중구,대구광역시 중구 중앙대로 355-1 (남산동),19790608,128.5928920,35.8649823
복음약국,대구중구,대구광역시 중구 달성로 29 (대신동),19790327,128.5820871,35.8676946
인제약국,대구수성구,대구광역시 수성구 청수로 27-5 (중동),20030509,128.6112757,35.8410743
합동약국,대구수성구,대구광역시 수성구 청수로4길 1 (중동),20060216,128.6103752,35.8406022
새제일약국,대구달서구,대구광역시 달서구 월곡로26길 41 (상인동),19931018,128.5507454,35.8087155
혜민약국,대구중구,대구광역시 중구 국채보상로 533 (수동),20030731,128.5889315,35.8704357
하나약국,대구서구,대구광역시 서구 달서로 188 (비산동),20061116,128.5715907,35.8791372
광명약국,대구중구,대구광역시 중구 큰장로 74 (대신동),19790721,128.5755520,35.8659640
충효약국,울진군,경상북도 울진군 울진읍 연호로 12 (울진읍),19961108,129.4027141,36.9933965
편한약국,대구수성구,"대구광역시 수성구 동대구로 337 102호 (범어동, 화성파크리젠시상가)",20110919,128.6256172,35.8606456
드림온누리약국,대구중구,대구광역시 중구 달구벌대로 2210 1층 (대봉동),20160824,128.6047006,35.8624098
영남제일약국,대구달서구,대구광역시 달서구 월배로 414 (송현동),20001204,128.5521057,35.8310020
명산온누리약국,경산시,경상북도 경산시 삼풍로 4 (삼풍동),20040813,128.7544727,35.8209360
성산약국,대구중구,대구광역시 중구 명륜로 100 (남산동),19690731,128.5951019,35.8602771
명보약국,대구남구,대구광역시 남구 중앙대로22길 179 1층 (봉덕동),20190508,128.6005603,35.8424063
사랑약국,대구달서구,대구광역시 달서구 명덕로 17 (두류동),20000803,128.5736394,35.8609265
예약국,대구동구,대구광역시 동구 아양로 51 1층 (신암동),20051108,128.6196060,35.8824320
지혜약국,대구달서구,"대구광역시 달서구 도원로 30 205호 (도원동, 대곡프라자)",20170801,128.5353406,35.8071847
동제약국,대구남구,대구광역시 남구 중앙대로 160 (봉덕동),19801013,128.5908072,35.8474875
각산약국,대구동구,대구광역시 동구 반야월로 61 (용계동),19970616,128.6953077,35.8738666
홍익약국,대구북구,대구광역시 북구 학정로 50 (태전동),20101208,128.5480800,35.9131949
장안약국,대구남구,대구광역시 남구 두류공원로 18-1 (대명동),20011227,128.5751229,35.8404515
유정약국,대구북구,"대구광역시 북구 학정동로 10 나동 1층 103호 (국우동, 칠곡그린빌 5,6단지)",20180709,128.5674340,35.9449868
신종합약국,대구수성구,대구광역시 수성구 달구벌대로 2514 (범어동),19960517,128.6376073,35.8584905
명림약국,대구달서구,대구광역시 달서구 와룡로 110 (본리동),19830413,128.5375701,35.8425274
옥포우리약국,대구달성군,대구광역시 달성군 옥포면 비슬로 2200-1 (옥포면),20010614,128.4625332,35.7881137
봉산약국,대구서구,대구광역시 서구 북비산로74길 8-1 (비산동),19700128,128.5740242,35.8785433
세계로약국,대구달서구,대구광역시 달서구 두류길 76 (두류동),20150202,128.5704452,35.8593421
한일약국,대구서구,대구광역시 서구 북비산로74길 32-1 (비산동),19650720,128.5761439,35.8774969
프라임약국,대구북구,대구광역시 북구 침산로 138 (침산동),19981209,128.5918760,35.8887906
새재약국,중구,서울특별시 중구 장충단로7길 41 (장충동2가),19640406,127.0041641,37.5624188
동인프라자온누리약국,강남구,"서울특별시 강남구 밤고개로1길 10 117-2호 (수서동, 수서현대벤쳐빌)",20021012,127.1018445,37.4880245
방약국,중구,서울특별시 중구 을지로33길 2 (을지로4가),19871201,127.0004302,37.5669970
수플러스온누리약국,은평구,서울특별시 은평구 연서로 146 (대조동),20120430,126.9177227,37.6118281
한미약국,중구,"서울특별시 중구 청계천로 318 1층 가48호 (신당동, 동평화시장)",19790804,127.0137717,37.5693352
광진약국,중구,서울특별시 중구 다산로27길 6-14 (신당동),19890610,127.0132887,37.5599772
아세아약국,중구,서울특별시 중구 충무로4길 2 (초동),19841113,126.9930107,37.5649394
신성약국,중구,서울특별시 중구 다산로 215 경북여인숙 1층 (신당동),19831116,127.0148524,37.5624741
다나약국,중구,서울특별시 중구 동호로 171 (신당동),19760421,127.0112461,37.5534585
정성약국,강동구,서울특별시 강동구 성내로 77 (성내동),20041122,127.1285139,37.5275348
희구약국,중구,서울특별시 중구 남대문시장4길 37 (남창동),19800604,126.9773482,37.5584876
정원약국,중구,서울특별시 중구 세종대로18길 10 (태평로2가),19851226,126.9776230,37.5637119
메디팜광주약국,중구,서울특별시 중구 퇴계로6길 5 (회현동1가),20000106,126.9783914,37.5580336
왕란약국,중구,서울특별시 중구 을지로44길 20 (광희동1가),19871120,127.0063857,37.5652608
엄마손약국,양천구,서울특별시 양천구 지양로 30 (신월동),20010721,126.8368420,37.5191297
구명약국,관악구,서울특별시 관악구 봉천로 216 (신림동),20100629,126.9255341,37.4896272
소명약국,용산구,서울특별시 용산구 우사단로 43 (이태원동),19720128,126.9954687,37.5341123
명진약국,용산구,서울특별시 용산구 신흥로36길 1 (후암동),19890510,126.9817589,37.5466110
보현온누리약국,용산구,"서울특별시 용산구 신흥로20길 1 (용산동2가, 세명치과)",19890225,126.9850935,37.5459124
새서부약국,용산구,서울특별시 용산구 한강대로 293 (갈월동),19880105,126.9718808,37.5444052
신명약국,용산구,서울특별시 용산구 후암로28길 47 (후암동),19780720,126.9799099,37.5494117
우정약국,용산구,서울특별시 용산구 백범로 341 A동 315호 (원효로1가),19750517,126.9678941,37.5383556
풍전약국,용산구,서울특별시 용산구 원효로25길 31 (원효로4가),19730720,126.9525714,37.5328586
삼정약국,용산구,서울특별시 용산구 원효로19길 72-1 1층 (원효로3가),19740112,126.9558333,37.5334883
동명약국,용산구,서울특별시 용산구 원효로 164 (원효로2가),19750908,126.9612049,37.5348576
보림사약국,용산구,서울특별시 용산구 한강대로62나길 20 (용산동3가),19670529,126.9748545,37.5343931
신정제약국,용산구,"서울특별시 용산구 한강대로 50 (한강로3가, 신정재약국)",19720410,126.9645684,37.5253019
임상약국,용산구,서울특별시 용산구 이촌로14길 16 (이촌동),19750620,126.9543706,37.5277722
합동약국,대구달서구,대구광역시 달서구 와룡로 19-1 (본동),19850506,128.5368209,35.8343454
한사랑약국,대구남구,대구광역시 남구 대명로 26 (대명동),20000801,128.5603802,35.8379017
메디팜조약국,포항남구,경상북도 포항시 남구 해동로 57 (해도동),19901110,129.3728033,36.0245983
도연약국,대구달서구,대구광역시 달서구 호산로 143 (파호동),20020315,128.4777731,35.8525986
새달성약국,대구서구,대구광역시 서구 고성로 135 (원대동1가),20160901,128.5804647,35.8816240
순심약국,칠곡군,경상북도 칠곡군 왜관읍 중앙로 140 (왜관읍),20080627,128.3997462,35.9875891
영남약국,청도군,경상북도 청도군 청도읍 중앙로 5 (),20000901,128.7450474,35.6428529
튼튼한약국,대구서구,대구광역시 서구 달구벌대로 1807 (내당동),20120424,128.5624257,35.8599186
성지약국,대구수성구,대구광역시 수성구 달구벌대로 2288 (수성동1가),20010416,128.6128073,35.8595477
가까운약국,대구수성구,대구광역시 수성구 달구벌대로 2346-2 (수성동3가),20100302,128.6190469,35.8591375
건도약국,대구달서구,대구광역시 달서구 월성로 20 (월성동),20021227,128.5331498,35.8315763
신오수약국,영천시,경상북도 영천시 유봉길 66 (오수동),20051031,128.9178206,35.9536548
아진약국,대구서구,대구광역시 서구 달구벌대로 1875 (내당동),20020413,128.5694136,35.8617366
라온약국,대구서구,대구광역시 서구 팔달로 188 1층 (원대동3가),20181210,128.5705632,35.8881942
플러스약국,대구중구,대구광역시 중구 공평로 20 (삼덕동2가),20010602,128.6002534,35.8657591
종합약국,대구북구,대구광역시 북구 연암로 172 (산격동),20050228,128.5964476,35.8997048
현대약국,포항남구,경상북도 포항시 남구 오천읍 세계길 46 (오천읍),19941206,129.4160257,35.9662012
혜민약국,성주군,경상북도 성주군 성주읍 성주읍3길 6-1 (),20181024,128.2871592,35.9185954
부광약국,대구서구,대구광역시 서구 서대구로 66 1층 (평리동),19900816,128.5564182,35.8640077
건강당약국,대구서구,대구광역시 서구 문화로 300-1 (평리동),19840217,128.5655639,35.8756625
성모온누리약국,대구북구,"대구광역시 북구 칠곡중앙대로 411 2층 (태전동, 우영펠리스)",20061027,128.5479737,35.9325063
새혜민약국,대구동구,대구광역시 동구 반야월로 371 (신서동),20181206,128.7293321,35.8718777
옵티마제일약국,경산시,경상북도 경산시 중앙로 79 (중방동),20111201,128.7355074,35.8234177
은결약국,경산시,경상북도 경산시 대학로 291 (대동),19870204,128.7537516,35.8371534
가야약국,경산시,경상북도 경산시 하양읍 대학로296길 7 (하양읍),20030417,128.8242741,35.9102451
순천당약국,경산시,경상북도 경산시 압량면 대학로 345 (압량면),19940730,128.7583011,35.8402072
동산약국,경산시,경상북도 경산시 하양읍 대학로 1530 (하양읍),19670418,128.8208240,35.9144862
성심약국,경산시,경상북도 경산시 하양읍 금송로 20-1 20,19650320,128.8175545,35.9150926
전약국,대구동구,대구광역시 동구 신암남로 183 (신암동),20060102,128.6326626,35.8853018
효성약국,경주시,경상북도 경주시 화랑로 107 (동부동),19950920,129.2124995,35.8448159
굿모닝약국,포항북구,경상북도 포항시 북구 흥해읍 중성로 62 나동 1호 (대성빌라2차),20190128,129.3497366,36.1086807
대구약국,경주시,경상북도 경주시 화랑로 84 (서부동),19770314,129.2098988,35.8444527
영천온누리약국,포항북구,경상북도 포항시 북구 장량로 32 (장성동),20101022,129.3836663,36.0824353
해동약국,경주시,경상북도 경주시 화랑로 145 (성동동),19760127,129.2167514,35.8445854
호정약국,경주시,경상북도 경주시 충효중앙길 107 (충효동),19961015,129.1795010,35.8449170
새경북약국,구미시,경상북도 구미시 형곡중앙로 41 (형곡동),19990208,128.3363029,36.1112019
서강약국,영천시,경상북도 영천시 금호읍 금호로 129 (금호읍),19961231,128.8757521,35.9320847
비보약국,김천시,경상북도 김천시 농소면 농남로 32 (),20180305,128.1726603,36.1069718
세계로약국,대구동구,대구광역시 동구 아양로 111 1층 (신암동),20071022,128.6256026,35.8844086
유명약국,구미시,경상북도 구미시 구미중앙로 61 (원평동),19840614,128.3296341,36.1298058
음양약국,구미시,경상북도 구미시 백산로 61 (송정동),20070823,128.3406449,36.1215652
강약국,대구남구,대구광역시 남구 중앙대로29길 29 (대명동),20031129,128.5886917,35.8460185
혜민약국,구미시,경상북도 구미시 고아읍 문장로22길 40 (한누리상가 106호),20070402,128.3329232,36.1530704
옥계21세기약국,구미시,경상북도 구미시 옥계북로 26 (옥계동),20120312,128.4202436,36.1382147
상아약국,칠곡군,경상북도 칠곡군 북삼읍 금오대로 266 (북삼읍),20080410,128.3469303,36.0689836
수정약국,구미시,경상북도 구미시 구미중앙로19길 3 (원평동),19850201,128.3347295,36.1278478
한솔약국,김천시,경상북도 김천시 자산로 152-8 (성내동),19870624,128.1184591,36.1230384
남선약국,김천시,경상북도 김천시 김천로 190-2 (남산동),19870824,128.1212691,36.1192950
직지약국,김천시,경상북도 김천시 대항면 황학동길 4-35 (대항면),19870507,128.0176624,36.1148966
태화지성약국,안동시,경상북도 안동시 대안로 85 (광석동),19790329,128.7222856,36.5653693
하나로약국,안동시,"경상북도 안동시 강남5길 10 102호 (정하동, 남광빌딩)",19850622,128.7356882,36.5509932
참약국,대구수성구,대구광역시 수성구 화랑로 66 (만촌동),20131227,128.6344420,35.8713487
태평양약국,안동시,경상북도 안동시 대안로 107 (대석동),19730417,128.7246893,36.5654499
일신약국,안동시,경상북도 안동시 중앙로 62 (동부동),19841016,128.7333066,36.5649282
현대약국,안동시,경상북도 안동시 길주길 93 (용상동),19740330,128.7620711,36.5547095
동부약국,안동시,경상북도 안동시 은행나무로 106-3 (옥동),19810824,128.6969194,36.5675668
새평화약국,용산구,서울특별시 용산구 후암로57길 37 1층 (동자동),20190211,126.9741258,37.5518055
다정옵티마약국,중랑구,서울특별시 중랑구 동일로143길 29 (중화동),20091228,127.0768575,37.6050705
가까운이화약국,송파구,"서울특별시 송파구 토성로 18 1층, 지층 (풍납동)",20030102,127.1123066,37.5308280
동남약국,대구북구,대구광역시 북구 검단로 112-1 (검단동),20040112,128.6200501,35.9066536
수복약국,구미시,경상북도 구미시 옥계2공단로 264-6 (구포동),20020419,128.4162889,36.1288403
원고개약국,대구서구,대구광역시 서구 통학로48길 44 (비산동),19920519,128.5678367,35.8811799
새인산약국,대구달서구,대구광역시 달서구 이곡공원로 24 (이곡동),20060921,128.5099800,35.8549597
안지약국,대구남구,대구광역시 남구 대명로 174 (대명동),20120402,128.5766422,35.8388110
용산동산약국,대구달서구,대구광역시 달서구 용산로 225 (용산동),20011201,128.5303227,35.8577994
파동약국,대구수성구,대구광역시 수성구 파동로 250 (파동),20010220,128.6103144,35.8248409
수정약국,대구동구,대구광역시 동구 효동로1길 66 (효목동),19901110,128.6455494,35.8779256
월드컵약국,대구달서구,대구광역시 달서구 월배로 432 (송현동),20130729,128.5531023,35.8322136
아양약국,대구동구,대구광역시 동구 아양로 236 (효목동),19980630,128.6388119,35.8865118
대원약국,대구동구,대구광역시 동구 안심로49길 110 (서호동),19810310,128.7108244,35.8707739
유명약국,대구수성구,대구광역시 수성구 신매로 84 (신매동),19960106,128.7089064,35.8369854
새세명약국,대구서구,대구광역시 서구 국채보상로52길 31-21 (평리동),19760525,128.5615249,35.8686724
새동보약국,대구동구,대구광역시 동구 신암남로27길 81 (신암동),19800104,128.6308935,35.8837967
굿데이약국,칠곡군,경상북도 칠곡군 석적읍 북중리3길 53 (석적읍),20000602,128.4113272,36.0793374
영생약국,대구동구,대구광역시 동구 아양로8길 13 (신암동),19800418,128.6193923,35.8807302
대일약국,대구북구,대구광역시 북구 고성로 152 (고성동2가),19790324,128.5823386,35.8809461
킴스약국,대구서구,대구광역시 서구 팔달로 154 (비산동),20141230,128.5669813,35.8887870
장약국,대구중구,대구광역시 중구 동성로1길 81 (삼덕동1가),20030428,128.5976473,35.8652051
솔약국,대구달서구,대구광역시 달서구 상인로 7 (상인동),20011005,128.5514319,35.8088643
행복한약국,대구남구,대구광역시 남구 중앙대로31길 203 (대명동),20160518,128.5830278,35.8523384
행복약국,대구동구,대구광역시 동구 동대구로85길 27 (신천동),19840402,128.6243806,35.8728250
동방약국,대구수성구,대구광역시 수성구 용학로 228 (지산동),20010630,128.6332274,35.8206734
보명당약국,대구동구,대구광역시 동구 동부로 21 1층 (신천동),20081212,128.6151085,35.8742470
진우약국,대구달서구,대구광역시 달서구 두류남길 84 (두류동),19810811,128.5699347,35.8571897
구주약국,대구북구,대구광역시 북구 구암로15길 22 (읍내동),20111226,128.5497786,35.9344545
영화약국,대구남구,대구광역시 남구 큰골길 75 (대명동),19841103,128.5802857,35.8369646
메디팜은화약국,대구서구,대구광역시 서구 달구벌대로 1885 (내당동),20100405,128.5704409,35.8619473
정다운약국,경산시,경상북도 경산시 대학로10길 24 (정평동),20031107,128.7276880,35.8320170
한국약국,대구북구,대구광역시 북구 칠성시장로 26 1층 (칠성동1가),19740724,128.6042918,35.8765448
골드팜행복나눔약국,경산시,경상북도 경산시 대학로 39 정평빌딩 1층 (정평동),20120906,128.7272621,35.8346110
서문약국,대구중구,대구광역시 중구 큰장로 132 (대신동),20080901,128.5796376,35.8699342
메디칼약국,대구수성구,대구광역시 수성구 동대구로 330 2층 (범어동),20050831,128.6273375,35.8597154
율하약국,대구동구,대구광역시 동구 반야월로 108 1층 (율하동),20110530,128.7002163,35.8730854
한도약국,대구동구,대구광역시 동구 동북로 407 (신암동),20010226,128.6323257,35.8864608
행복한약국,대구동구,대구광역시 동구 동호로 75 3층 303호 (신서동),20090901,128.7250335,35.8663246
세창약국,대구북구,대구광역시 북구 팔달로35길 30 (노원동2가),19890612,128.5699972,35.8899467
새건강약국,대구북구,대구광역시 북구 동북로 278 (복현동),19890826,128.6203188,35.8930938
현대약국,대구북구,대구광역시 북구 대현로 99 (대현동),19790809,128.6099122,35.8825822
구약국,경산시,경상북도 경산시 경안로 234 (중방동),20140203,128.7364283,35.8283577
한가족약국,대구서구,대구광역시 서구 달서로 159 (비산동),20001205,128.5709766,35.8765168
강남당약국,대구북구,대구광역시 북구 신암로 99 1층 (대현동),20170814,128.6104847,35.8798973
새봄약국,대구수성구,대구광역시 수성구 달구벌대로 2512 (범어동),20110311,128.6374052,35.8584596
온누리김약국,대구남구,대구광역시 남구 영선길 28 1층 (대명동),20160906,128.5917313,35.8542076
평리약국,대구서구,대구광역시 서구 문화로49길 31 (평리동),20080414,128.5590168,35.8784918
한일약국,대구동구,"대구광역시 동구 아양로 171 1층 상가2호 (신암동, 우남아파트)",20141010,128.6315630,35.8857990
미래약국,칠곡군,경상북도 칠곡군 왜관읍 중앙로2길 36 (왜관읍),20000803,128.3984184,35.9918839
상동약국,대구수성구,대구광역시 수성구 상화로 38-1 (상동),19770725,128.6112351,35.8346043
한영약국,대구달성군,대구광역시 달성군 화원읍 사문진로 441 (),20000822,128.4969482,35.8040805
드림시티약국,대구달서구,대구광역시 달서구 장기로 244 (장기동),20030627,128.5337453,35.8437767
그랜드약국,대구동구,대구광역시 동구 동촌로 242 다산빌딩 (방촌동),20181126,128.6661645,35.8807884
태광약국,대구수성구,대구광역시 수성구 신천동로 280 (수성동1가),19830222,128.6094025,35.8494986
서울약국,대구달서구,대구광역시 달서구 상원로 24 (상인동),20070122,128.5366441,35.8121198
행복한약국,대구달성군,대구광역시 달성군 현풍면 비슬로130길 97 (현풍면),20070530,128.4444835,35.6952081
365열린온누리약국,인천미추홀구,인천광역시 미추홀구 낙섬중로 105 유원빌딩 1층 101호 (용현동),20171218,126.6413209,37.4567534
아이약국,동대문구,"서울특별시 동대문구 장한로32길 19 105동 102호 (장안동, 삼성리치캐슬)",20171229,127.0733147,37.5758584
한샘약국,노원구,서울특별시 노원구 상계로27길 7 중앙빌딩 1층 (상계동),20180102,127.0705964,37.6589190
팜스토리약국,양천구,서울특별시 양천구 목동서로 170 홈플러스목동점 지하2층 (목동),20190415,126.8733001,37.5302448
신용산수약국,용산구,"서울특별시 용산구 한강대로 109 용성비즈텔 지하2층 233,227호 (한강로2가)",20180102,126.9681669,37.5300048
새건강약국,부산사하구,부산광역시 사하구 두송로 210 나동 2층 (구평동),20181001,128.9896527,35.0703912
한독약국,성남중원구,경기도 성남시 중원구 희망로 378 1층 (상대원동),20171229,127.1592056,37.4393372
한누리약국,양주시,경기도 양주시 삼숭로38번길 71 양주프라자2 3층 3305호 (삼숭동),20180102,127.1051769,37.7967976
건강한약국,공주시,충청남도 공주시 왕릉로 10 (웅진동),20180102,127.1105355,36.4582257
세창약국,제주시,제주특별자치도 제주시 한림읍 한림중앙로 1 (),20180102,126.2648575,33.4146040
청십자약국,인천남동구,인천광역시 남동구 호구포로 798 1층 (구월동),20180101,126.7194439,37.4535860
옵티마정다운약국,인천서구,인천광역시 서구 가정로 204 (석남동),20180102,126.6722986,37.5029713
건양정문약국,대전서구,대전광역시 서구 관저동로 162 건양프라자 108호 (관저동),20180118,127.3411367,36.3065608
참플러스약국,송파구,서울특별시 송파구 백제고분로 463 웅산빌딩 201호 (방이동),20170906,127.1128901,37.5119068
메디칼약국,의정부시,경기도 의정부시 행복로 40 (의정부동),20180201,127.0504063,37.7419700
엠비엘약국,대전유성구,대전광역시 유성구 원신흥남로12번길 8-10 MBL빌딩 1층 101호 (원신흥동),20180131,127.3384456,36.3329425
아이맘약국,세종시,세종특별자치시 보듬3로 150 아름 행복타워 101호 (아름동),20180206,127.2430111,36.5122564
동산약국,구미시,경상북도 구미시 야은로 296 (봉곡동),20180207,128.3151874,36.1386284
명문약국,강서구,"서울특별시 강서구 허준로 175 101호 (가양동, 가양6단지아파트상가)",19931210,126.8596338,37.5633207
정언약국,강동구,서울특별시 강동구 양재대로138길 47 (명일동),19930108,127.1465187,37.5495854
오금중앙약국,송파구,서울특별시 송파구 위례성대로20길 33 (오금동),19930109,127.1271768,37.5085533
다모아약국,노원구,"서울특별시 노원구 동일로 1379 105,106호 (상계동)",20000616,127.0609192,37.6518073
녹수프라자약국,금천구,서울특별시 금천구 독산로 213 (독산동),19980608,126.9018055,37.4657728
대우마이빌약국,양천구,"서울특별시 양천구 공항대로 552 1층 (목동, 대우마이빌빌딩)",20030417,126.8669562,37.5495586
정다운온누리약국,중랑구,서울특별시 중랑구 사가정로 401 1층 (면목동),19990819,127.0893977,37.5807351
당산삼성약국,영등포구,서울특별시 영등포구 당산로44길 3 (당산동5가),20120612,126.9007799,37.5319884
진선미약국,동대문구,서울특별시 동대문구 한천로 86 (장안동),19930416,127.0641659,37.5691078
이화한솔약국,성동구,서울특별시 성동구 고산자로 342 (마장동),20060822,127.0378655,37.5699762
솔잎약국,강남구,"서울특별시 강남구 개포로 615 308-1호 (개포동, 석탑프라자)",20020916,127.0756013,37.4926645
구암약국,강서구,"서울특별시 강서구 허준로 121 109호 (가양동, 대림아파트상가)",19931008,126.8540714,37.5664452
보건약국,동작구,서울특별시 동작구 장승배기로10길 43 (상도동),19930908,126.9413389,37.5046598
새봉화약국,중랑구,"서울특별시 중랑구 신내로 211 203-A호 (신내동, 금강리빙스텔)",20120917,127.0926492,37.6164445
삼성약국,강남구,"서울특별시 강남구 광평로19길 10 101호 (수서동, 까치마을아파트상가)",19930921,127.0878214,37.4849884
보운약국,강동구,서울특별시 강동구 진황도로61길 42 (둔촌동),20000614,127.1454678,37.5284688
위드팜대학약국,노원구,"서울특별시 노원구 한글비석로 56 1층 10호 (하계동, 미성아파트상가)",20010420,127.0687151,37.6358879
수유프라자약국,강북구,서울특별시 강북구 덕릉로 42 1층 (수유동),20140616,127.0182480,37.6340820
달구약국,강남구,"서울특별시 강남구 양재대로55길 6 113호 (일원동, 수서1단지상가)",20010705,127.0883290,37.4913409
멜론약국,성북구,서울특별시 성북구 보국문로 53 (정릉동),20050201,127.0094979,37.6092687
동성약국,강서구,"서울특별시 강서구 금낭화로23길 8 123호 (방화동, 동성아파트단지내상가)",19940126,126.8119701,37.5796258
희망약국,종로구,서울특별시 종로구 율곡로 204 (연건동),20070102,127.0015328,37.5758847
홈케어방배약국,서초구,서울특별시 서초구 서초대로 24 1층 (방배동),20041029,126.9850560,37.4854712
면목백화점약국,중랑구,서울특별시 중랑구 용마산로 328 (면목동),19970404,127.0935871,37.5810611
캐슬온누리약국,종로구,"서울특별시 종로구 종로 347 207호 (숭인동, 롯데캐슬천지인상가)",20050218,127.0164919,37.5737459
화인팜약국,노원구,"서울특별시 노원구 중계로 160 204호 (중계동, 화인상가)",19940407,127.0812993,37.6495898
마천행복한약국,송파구,서울특별시 송파구 마천로51길 2 (마천동),20041108,127.1505264,37.4955212
한국약국,용산구,"서울특별시 용산구 이촌로 303 21동 112호 (이촌동, 현대아파트)",20041201,126.9817695,37.5187815
늘사랑약국,동작구,서울특별시 동작구 상도로 91 (상도동),19940523,126.9307122,37.5000475
건강약국,송파구,서울특별시 송파구 백제고분로 162 (잠실동),20040827,127.0847373,37.5050040
동오약국,용산구,서울특별시 용산구 보광로 18 (보광동),19940204,127.0009916,37.5263754
강남온누리약국,강남구,서울특별시 강남구 선릉로 406 102호 (대치동),20190701,127.0508521,37.5011571
새비타민약국,동작구,서울특별시 동작구 성대로 52 (상도동),19940725,126.9337615,37.4984736
가로수길약국,강남구,서울특별시 강남구 압구정로 108 1층 7호 (신사동),20140306,127.0206138,37.5228904
새봄약국,은평구,서울특별시 은평구 은평로 5 1층 (신사동),20081027,126.9092234,37.5967735
더블유스토어아름다운약국,영등포구,서울특별시 영등포구 영중로 6 (영등포동3가),20140325,126.9066713,37.5169662
웰빙서울온누리약국,광진구,서울특별시 광진구 뚝섬로 499 (자양동),20090102,127.0658387,37.5361408
새소망약국,동대문구,서울특별시 동대문구 답십리로 293 (장안동),20020327,127.0730483,37.5724843
진한약국,금천구,서울특별시 금천구 벚꽃로38길 5 (가산동),19990702,126.8833345,37.4819237
원지당약국,동대문구,서울특별시 동대문구 약령중앙로 14-3 (제기동),19901221,127.0372301,37.5795909
성부당약국,동대문구,서울특별시 동대문구 왕산로 163-1 (제기동),19960203,127.0415136,37.5792296
삼정당약국,동대문구,서울특별시 동대문구 약령중앙로 14-7 (제기동),19930820,127.0375264,37.5795900
구산약국,중랑구,서울특별시 중랑구 공릉로2길 7 구산빌딩 (묵동),20021122,127.0782732,37.6122199
타워약국,구로구,"서울특별시 구로구 디지털로 288 1층 104호 (구로동, 대륭포스트타워1차)",20070510,126.8953657,37.4837318
동신약국,동대문구,서울특별시 동대문구 하정로5길 1 1층 (신설동),20161108,127.0262739,37.5759997
한진당약국,동대문구,서울특별시 동대문구 고산자로36길 3 (제기동),19831202,127.0391429,37.5790378
영보서초프라자약국,서초구,서울특별시 서초구 방배로 88 1층 (방배동),20130710,126.9973977,37.4823640
진선약국,강남구,서울특별시 강남구 선릉로 424 (대치동),19870512,127.0500875,37.5029179
지영온누리약국,강남구,"서울특별시 강남구 영동대로 221 (대치동, 서림상가 101호)",19811020,127.0681377,37.4986677
온누리구인당약국,강남구,"서울특별시 강남구 삼성로 150 110호 (대치동, 한보미도종합상가)",19850222,127.0662067,37.4927978
양월약국,강남구,서울특별시 강남구 개포로82길 13-11 105호 (개포동),19840203,127.0681338,37.4887593
한신메디칼약국,서초구,"서울특별시 서초구 잠원로 94 지층 (잠원동, 한신상가)",20001102,127.0068701,37.5127259
아주약국,강동구,서울특별시 강동구 양재대로128길 9 (명일동),20151020,127.1433882,37.5450248
열린프라자약국,강동구,서울특별시 강동구 천호대로170길 26 (성내동),20080201,127.1328782,37.5342975
새가정약국,강동구,서울특별시 강동구 양재대로 1595 (천호동),19820420,127.1431882,37.5479709
새희망약국,송파구,서울특별시 송파구 송파대로 422 (송파동),20090828,127.1080302,37.5048142
신세계약국,광진구,서울특별시 광진구 뚝섬로 511 (자양동),20001221,127.0672338,37.5357568
메디팜정원약국,강동구,서울특별시 강동구 천호대로 1200 (둔촌동),19830810,127.1446662,37.5345731
거여서울약국,송파구,"서울특별시 송파구 오금로 505 (거여동, 101호)",20081110,127.1449105,37.4932219
청원약국,강동구,서울특별시 강동구 구천면로 192 천호역 한강 푸르지오시티 1층 110호 (천호동),20171013,127.1258416,37.5403621
강동약국,강동구,서울특별시 강동구 암사길 53 (암사동),19860111,127.1353466,37.5520177
보은약국,강동구,서울특별시 강동구 천호대로157길 30 (천호동),19821202,127.1275609,37.5390214
여인선약국,강동구,서울특별시 강동구 천호대로170길 28 (성내동),19840428,127.1328194,37.5341960
메디팜한진약국,용산구,서울특별시 용산구  이촌로18길 5 (이촌동),19800109,126.9554943,37.5262903
한중약국,영등포구,서울특별시 영등포구 디지털로37길 20 (대림동),20140704,126.8983532,37.4903819
가나안약국,중랑구,서울특별시 중랑구 봉우재로 39 (면목동),19770412,127.0776297,37.5906778
동성약국,중랑구,서울특별시 중랑구 겸재로 84 (면목동),19830211,127.0772440,37.5858918
조아약국,성북구,서울특별시 성북구 화랑로 87 1층 (하월곡동),20081201,127.0417908,37.6027225
온누리신용약국,중랑구,서울특별시 중랑구 중랑천로 114-1 (중화동),19770201,127.0724376,37.5954864
성지약국,중랑구,서울특별시 중랑구 공릉로12가길 52 (묵동),19820831,127.0822038,37.6175456
부민당약국,중랑구,서울특별시 중랑구 면목로91길 26 (상봉동),19730425,127.0844601,37.5942829
세계로약국,송파구,서울특별시 송파구 거마로 66 (마천동),19961105,127.1471650,37.4986781
신성모약국,중랑구,서울특별시 중랑구 용마산로 424 (면목동),19861125,127.0969285,37.5892311
진주약국,광진구,서울특별시 광진구 자양로15길 9 (자양동),19990719,127.0829499,37.5357572
세일약국,중랑구,서울특별시 중랑구 면목로45길 36 (면목동),19731011,127.0865410,37.5819440
성재약국,중랑구,서울특별시 중랑구 사가정로45길 41 (면목동),19770611,127.0853989,37.5829904
로데오약국,중랑구,서울특별시 중랑구 면목로 330 (면목동),20040203,127.0887219,37.5813230
대영진약국,중랑구,서울특별시 중랑구 용마공원로 16 (망우동),19960417,127.1010672,37.5942343
역삼라이프약국,강남구,서울특별시 강남구 테헤란로25길 59 지하1층 (역삼동),20060424,127.0341902,37.5043180
연무약국,수원장안구,경기도 수원시 장안구 월드컵로428번길 9 (연무동),20030716,127.0257225,37.2941483
인혜약국,인천동구,"인천광역시 동구 화도진로 187 201호 (만석동, 만석비치타운주공아파트상가)",20030704,126.6213027,37.4856808
네오메디칼약국,수원영통구,"경기도 수원시 영통구 봉영로 1569 304-1호 (영통동, 뉴월드프라자)",20060907,127.0710183,37.2520797
신메디칼약국,군포시,"경기도 군포시 산본로 341 301호 (산본동, 현대코아텔)",20030829,126.9323675,37.3608754
수생약국,고양덕양구,경기도 고양시 덕양구 원당로33번길 30 (주교동),20030901,126.8309254,37.6573571
가까운약국,김포시,경기도 김포시 돌문로 98 (사우동),20160513,126.7132738,37.6219593
삼성홈플러스중앙약국,안산상록구,"경기도 안산시 상록구 충장로 432 2층 (성포동, 홈플러스안산점)",20030916,126.8501006,37.3172105
푸른약국,부천시,경기도 부천시 신흥로 379 1층 (내동),20030922,126.7749484,37.5175007
참약국,인천남동구,인천광역시 남동구 논고개로 337 1층 (도림동),20040310,126.7300651,37.4199093
조은약국,수원영통구,"경기도 수원시 영통구 덕영대로 1525 1층 (영통동, 성모빌딩)",20031004,127.0578004,37.2462455
큰사랑약국,평택시,경기도 평택시 중앙2로 37 (합정동),20040129,127.0911814,36.9915795
으뜸약국,고양일산동구,"경기도 고양시 일산동구 일산로 46 411호 (백석동, 남정씨티프라자3차)",20140321,126.7879246,37.6423756
미소약국,용인수지구,경기도 용인시 수지구 문정로 22 (풍덕천동),20051103,127.0961203,37.3229239
우리가족건강온누리약국,오산시,"경기도 오산시 경기대로 189 104,105호 (원동, 메딕프라자)",20130213,127.0730417,37.1417861
방약국,중랑구,서울특별시 중랑구 면목로 260 1층 (면목동),20130408,127.0860169,37.5759308
북구21세기약국,대구북구,"대구광역시 북구 침산로 93 319호,320호 (칠성동2가, 스펙트럼시티)",20041207,128.5897899,35.8852256
건강약국,익산시,전라북도 익산시 인북로 290-2 (남중동),20030512,126.9596974,35.9542542
기계약국,포항북구,경상북도 포항시 북구 기계면 기계로 54 (),19980107,129.2106238,36.0698709
대창약국,해남군,전라남도 해남군 해남읍 중앙2로 124 (해남읍),19811010,126.5953372,34.5672293
늘봄약국,안양만안구,경기도 안양시 만안구 박달로 531 (박달동),20030121,126.9118149,37.4027677
종로약국,순천시,전라남도 순천시 우석2길 55 1층 (장천동),20161125,127.4906276,34.9456759
엄약국,봉화군,경상북도 봉화군 봉화읍 봉화로 1157 (봉화읍),19850828,128.7365841,36.8911094
영신약국,인천남동구,"인천광역시 남동구 인주대로 861 (만수동, 1층일부)",20030106,126.7331497,37.4486248
명인약국,부산동래구,부산광역시 동래구 충렬대로428번길 31 (안락동),19700930,129.1046336,35.1950555
파티마약국,충주시,충청북도 충주시 봉계1길 52 (칠금동),20020209,127.9156288,36.9810538
바다약국,태안군,충청남도 태안군 태안읍 서해로 1952-13 (태안읍),20040501,126.3229687,36.7524882
보은약국,제주시,제주특별자치도 제주시  서광로 175 (용담일동),20150611,126.5151696,33.5003217
미래약국,부산사상구,부산광역시 사상구 사상로 277 (덕포동),20041011,128.9823445,35.1696710
천사약국,익산시,전라북도 익산시 고현로7길 4 (모현동1가),19910529,126.9431435,35.9459616
세원약국,포항북구,경상북도 포항시 북구 중흥로 287 (죽도동),20010120,129.3620592,36.0282728
성환제일약국,천안서북구,충청남도 천안시 서북구 성환읍 성환12길 45-8 (성환읍),20001004,127.1334456,36.9174641
청담비비약국,강남구,"서울특별시 강남구 삼성로 752 1층 (청담동, 새가정빌딩)",20170630,127.0487791,37.5222553
호산나약국,영광군,전라남도 영광군 염산면 천년로 19-5 (),20010718,126.3738997,35.2179786
성대약국,동작구,서울특별시 동작구 성대로 11 (상도동),20020603,126.9325830,37.5000360
밝은약국,김제시,전라북도 김제시 금구면 애통길 144 144,20040922,126.9972818,35.8177710
보경약국,충주시,충청북도 충주시 중앙로 49 (문화동),19820612,127.9288487,36.9730674
개군약국,양평군,경기도 양평군 개군면 하자포길 33 (개군면),19971128,127.5377267,37.4261041
샘솟는약국,부산금정구,부산광역시 금정구 중앙대로 2027 1층 (남산동),20090216,129.0921098,35.2654646
새행복약국,부산연제구,"부산광역시 연제구 고분로 200 (연산동, 연산엘지아파트상가 103호)",20141208,129.1031996,35.1848600
가야온누리약국,도봉구,"서울특별시 도봉구 노해로65길 17-9 102,103호 (창동, 삼원프라자)",20000811,127.0457672,37.6519602
보화당약국,도봉구,서울특별시 도봉구 노해로69길 15 (창동),19910108,127.0506652,37.6529868
풍원약국,대구동구,"대구광역시 동구 동부로 1 101동 118호 (신천동, 신천주공아파트 상가)",19721030,128.6133067,35.8747231
종로온누리약국,청양군,충청남도 청양군 청양읍 중앙로 130 (청양읍),20030513,126.8032464,36.4512378
새평화약국,전주덕진구,전라북도 전주시 덕진구 안덕원로 261 (인후동1가),19820716,127.1555498,35.8369506
하나로약국,중랑구,서울특별시 중랑구 망우로 192 (상봉동),20010130,127.0741597,37.5931968
이약국,부산서구,부산광역시 서구 해돋이로269번길 4 (아미동2가),19721214,129.0162714,35.1005673
행복한약국,광주동구,광주광역시 동구 남문로 689 (학동),20110325,126.9283114,35.1321959
유정약국,아산시,"충청남도 아산시 남부로 353 104호 (풍기동, 동일하이빌아파트상가)",20001201,127.0209050,36.7740132
찬솔약국,동작구,서울특별시 동작구 만양로 86 (노량진동),19950510,126.9446159,37.5112054
은혜약국,단양군,충청북도 단양군 매포읍 평동3로 4 (매포읍),20070904,128.2986020,37.0344259
모아약국,양천구,서울특별시 양천구 남부순환로59길 9 (신월동),19900320,126.8322623,37.5323062
종로약국,서귀포시,제주특별자치도 서귀포시 중정로61번길 4 (서귀동),19961220,126.5631109,33.2481050
녹십자약국,익산시,전라북도 익산시 무왕로 1030 (영등동),20050412,126.9712214,35.9581256
누리약국,인천계양구,인천광역시 계양구 효서로 53 (효성동),20040402,126.7016925,37.5277326
명성약국,김천시,경상북도 김천시 시청2길 5 (신음동),20090629,128.1139102,36.1388602
해인약국,부산진구,부산광역시 부산진구 황령대로 12 (범천동),20160811,129.0611555,35.1476076
예은온누리약국,제주시,제주특별자치도 제주시 노형8길 8 1층 (노형동),20180319,126.4778363,33.4840029
봄빛약국,수원영통구,경기도 수원시 영통구 영통로154번길 74 B03호 (망포동),20160810,127.0597064,37.2412975
국민약국,동대문구,"서울특별시 동대문구 이문로 37 104호 (회기동, 회기역 한일베라체캠퍼스)",20180424,127.0561285,37.5908164
자양약국,광진구,서울특별시 광진구 자양로 88 광영빌딩 1층 (자양동),20181217,127.0843323,37.5356362
하늘약국,서초구,서울특별시 서초구 강남대로61길 3 대승빌딩 101호 (서초동),20180702,127.0265440,37.4992014
월곡보건약국,성북구,서울특별시 성북구 화랑로 61 1층 (하월곡동),20180430,127.0392145,37.6026516
공항시장샘온누리약국,강서구,서울특별시 강서구 방화동로 37 메디스타워 (방화동),20180709,126.8106933,37.5641899
고은약국,강남구,서울특별시 강남구 봉은사로 105 2층 (논현동),20181011,127.0250571,37.5049634
즐거운약국,구로구,서울특별시 구로구 경인로 320 (개봉동),20180504,126.8557556,37.4971058
잠실미소약국,송파구,서울특별시 송파구 올림픽로35가길 16 홈플러스잠실점 B1층 (신천동),20180601,127.1030345,37.5162594
혜성약국,서대문구,서울특별시 서대문구 증가로20가길 89 1층 (북가좌동),20180430,126.9194739,37.5824365
참약사엠바른약국,중랑구,서울특별시 중랑구 겸재로 164 1층 103호 (면목동),20180430,127.0859323,37.5878056
우리조운약국,영등포구,서울특별시 영등포구 도림로 206 1층 (대림동),20180430,126.9036032,37.4969454
창대온누리약국,양천구,서울특별시 양천구 목동중앙북로 13-1 (목동),20180501,126.8651570,37.5485624
소백약국,송파구,서울특별시 송파구 양산로 12 세신거여훼미리타운 1층 107호 (거여동),20180501,127.1435829,37.4899347
사랑약국,관악구,서울특별시 관악구 남부순환로 2082-33 (남현동),20180501,126.9803937,37.4761610
정다운온누리약국,은평구,서울특별시 은평구 갈현로 260 1층 (갈현동),20180501,126.9162292,37.6200201
구로솔약국,구로구,서울특별시 구로구 경인로 433 (고척동),20180510,126.8669964,37.4997039
가가호호조은약국,송파구,서울특별시 송파구 토성로 16 (풍납동),20180510,127.1121429,37.5308496
마곡새봄약국,강서구,서울특별시 강서구 강서로 463 새싹타워 1층 (마곡동),20180510,126.8404559,37.5669502
서울해나약국,강남구,서울특별시 강남구 압구정로 160 제성빌딩 3층 (신사동),20180510,127.0272414,37.5262658
팜프라자약국,영등포구,서울특별시 영등포구 여의나루로 50 한국교직원공제회관 B1층 3호 (여의도동),20180514,126.9256512,37.5218052
민트약국,강남구,서울특별시 강남구 강남대로 590 미혜빌딩 1층 (논현동),20180521,127.0204374,37.5145482
아이파크약국,송파구,"서울특별시 송파구 위례광장로 230 B동 207호 (장지동, 위례2차아이파크)",20180521,127.1437404,37.4800734
마곡열린약국,강서구,"서울특별시 강서구 방화대로 294 마곡더블유타워 114, 115호 (마곡동)",20180521,126.8170516,37.5669962
밝은미소약국,은평구,서울특별시 은평구 갈현로 15 1층 103호 (신사동),20180523,126.9099922,37.5992616
신논현약국,강남구,서울특별시 강남구 봉은사로 109 싼타홍메디컬타워 지하1층 (논현동),20180523,127.0255834,37.5050767
불광다올약국,은평구,서울특별시 은평구 통일로 728 1층 (불광동),20180531,126.9301915,37.6105799
한빛온누리약국,노원구,"서울특별시 노원구 동일로203가길 29 211 일부,212호 (중계동, 브라운스톤중계)",20180524,127.0642714,37.6399301
동서울약국,송파구,서울특별시 송파구 강동대로 61-1 지층 (풍납동),20180528,127.1144325,37.5272476
이레약국,동대문구,서울특별시 동대문구 사가정로 122 전농동하우스토리 3층 313호 (전농동),20180601,127.0585310,37.5772159
수약국,강동구,서울특별시 강동구 올림픽로 774 1층 3호 (암사동),20180601,127.1278692,37.5501924
강동온누리약국,강동구,서울특별시 강동구 천호대로187길 53 (길동),20180601,127.1428061,37.5366239
세종약국,종로구,서울특별시 종로구 세종대로23길 54 세종빌딩 지하1층 130호 (당주동),20180601,126.9733117,37.5718020
상쾌한해든약국,양천구,서울특별시 양천구 목동서로 256 4층 (목동),20180601,126.8692937,37.5246017
은하약국,송파구,서울특별시 송파구 양재대로 1164 홍일빌딩 6층 1호 (오금동),20180601,127.1282782,37.5110390
삼성중앙약국,중구,서울특별시 중구 퇴계로46길 15 1층 (묵정동),20180601,127.0000153,37.5617999
강서홈약국,강서구,서울특별시 강서구 화곡로 398 홈플러스강서점앤본사사옥 1층 (등촌동),20180601,126.8548190,37.5584700
새한약국,강북구,서울특별시 강북구 도봉로 67 새한빌딩 1층 102호 (미아동),20180604,127.0294967,37.6150541
서문사랑약국,광진구,서울특별시 광진구 용마산로23길 28 내담터 1층 (중곡동),20180604,127.0851672,37.5661837
연세현약국,노원구,서울특별시 노원구 한글비석로 436-1 1층 (상계동),20180604,127.0691108,37.6629899
새우리온누리약국,서대문구,서울특별시 서대문구 통일로 449 1층 (홍제동),20180607,126.9440357,37.5886106
레이크이화약국,송파구,서울특별시 송파구 석촌호수로 135 레이크팰리스 A동 122호 (잠실동),20180607,127.0923856,37.5075719
신태평약국,노원구,서울특별시 노원구 광운로 45 (월계동),20180608,127.0591038,37.6214949
더바른약국,강동구,서울특별시 강동구 구천면로 241 1층 (천호동),20180611,127.1305571,37.5420899
모건약국,강남구,서울특별시 강남구 테헤란로 120 상경빌딩 1층 (역삼동),20190809,127.0308733,37.4986000
원이약국,마포구,서울특별시 마포구 와우산로 94 제2기숙사 지하1층 B110호 (상수동),20180619,126.9255395,37.5512063
송파24약국,송파구,"서울특별시 송파구 송파대로 111, 하비오길 111 하비오길 송파대로202동 161호 (문정동, 파크하비오)",20180619,127.1232611,37.4805094
메디팜엔비약국,동작구,서울특별시 동작구 노량진로 152 . 1층 (노량진동),20180620,126.9427661,37.5134495
무지개약국,영등포구,서울특별시 영등포구 선유로 76 동국메뜨리앙 3층 305호 (문래동3가),20180620,126.8899118,37.5206365
우리대치약국,강남구,서울특별시 강남구 남부순환로 2936 윈플러스상가 1층 102호 (대치동),20180626,127.0618627,37.4933467
둥지약국,중랑구,서울특별시 중랑구 망우로 395 성아빌딩 2층 (망우동),20180702,127.0960094,37.5991555
구로미소약국,구로구,서울특별시 구로구 서해안로 2338 (오류동),20180702,126.8441772,37.4934967
한사랑약국,구로구,서울특별시 구로구 신도림로 7 금강리빙스텔 123호 (신도림동),20180702,126.8772301,37.5063533
보문약국,성북구,서울특별시 성북구 보문로 123 1층 (보문동2가),20180702,127.0187491,37.5859975
송파미소약국,송파구,"서울특별시 송파구 올림픽로35길 10 B동 308-1호 (신천동, 파크리오)",20180702,127.1132814,37.5203138
모두온누리약국,관악구,서울특별시 관악구 남부순환로 1869 1층 (봉천동),20180704,126.9575783,37.4798463
화원약국,강북구,서울특별시 강북구 삼양로 469 1층 (수유동),20180705,127.0154907,37.6451303
온유약국,영등포구,서울특별시 영등포구 여의공원로 13 한국방송공사 신관동 2층 (여의도동),20180706,126.9164112,37.5248360
서울온누리약국,강동구,서울특별시 강동구 천중로43길 34 신운빌딩 101호 (천호동),20180709,127.1411829,37.5425002
퍼스트케어약국,서초구,서울특별시 서초구 강남대로 381 두산베어스텔 304호 (서초동),20180709,127.0277221,37.4966918
이화메디약국,영등포구,서울특별시 영등포구 당산로 122 우미빌딩 1층 102호 (당산동3가),20180709,126.8969496,37.5254126
우리서울약국,용산구,"서울특별시 용산구 한강대로 95 2층 207호 (한강로2가, 래미안용산)",20180711,126.9668857,37.5290927
해솔온누리약국,구로구,서울특별시 구로구 구일로4길 30 신영상가 102호 (구로동),20180716,126.8764581,37.4918818
양지약국,중구,서울특별시 중구 수표로 23 영락빌딩 1층 (저동2가),20180716,126.9899643,37.5632131
희경약국,동작구,서울특별시 동작구 상도로 99 1층 (상도동),20180716,126.9314082,37.5003757
기린약국,은평구,서울특별시 은평구 서오릉로 79 아름빌딩 1층 (역촌동),20180723,126.9216987,37.6072861
약수온누리약국,중구,서울특별시 중구 다산로 112 신양빌딩 지하1층 (신당동),20180723,127.0103926,37.5537859
새잠실365약국,송파구,서울특별시 송파구 올림픽로 145 리센츠 3층 제3에이33호 (잠실동),20180723,127.0870103,37.5119636
행복한약국,강남구,서울특별시 강남구 테헤란로 222 도원빌딩 지하1층 일부 (역삼동),20180724,127.0407880,37.5016641
더하늘약국,송파구,서울특별시 송파구 올림픽로 119 잠실파인애플상가 3층 3B12호 (잠실동),20180724,127.0842018,37.5120894
뚝도약국,광진구,서울특별시 광진구 뚝섬로 595 1층 (자양동),20180724,127.0762003,37.5332088
제일약국,노원구,서울특별시 노원구 노원로 246 욱현하이브 105호 (하계동),20180726,127.0740950,37.6396449
이소약국,강서구,"서울특별시 강서구 강서로 242 상가동 4층 17호 (화곡동, 강서힐스테이트)",20180730,126.8367634,37.5473848
명음약국,서대문구,"서울특별시 서대문구 신촌로35길 10 1층 117호 (북아현동, e편한세상신촌 4단지)",20180730,126.9555910,37.5584811
창신종로약국,종로구,서울특별시 종로구 창신길 47 (창신동),20180730,127.0104625,37.5737595
미즈약국,강서구,서울특별시 강서구 강서로47가길 12 1층 (내발산동),20180801,126.8354584,37.5521680
새온약국,서대문구,서울특별시 서대문구 충정로 70 웨스트게이트타워 2층 (미근동),20180801,126.9664263,37.5647835
치료의빛예은약국,광진구,서울특별시 광진구 동일로 74 1층 (자양동),20180801,127.0626863,37.5392721
다솜약국,중랑구,서울특별시 중랑구 면목로 475 (상봉동),20180806,127.0858811,37.5942773
북가좌수약국,서대문구,서울특별시 서대문구 응암로 60 경원빌딩 1층 (북가좌동),20180806,126.9105432,37.5784681
도담약국,서대문구,"서울특별시 서대문구 신촌로35길 10 상가동 2층 206호 (북아현동, e편한세상신촌 4단지)",20180808,126.9555910,37.5584811
다정약국,강동구,서울특별시 강동구 양재대로 1377 2층 204호 (성내동),20180809,127.1362726,37.5291688
영등포메디칼약국,영등포구,서울특별시 영등포구 영중로8길 6 성남빌딩 B동 1층 104호 (영등포동3가),20180810,126.9061910,37.5183657
서울샤인약국,관악구,서울특별시 관악구 남부순환로 1451 1층 (신림동),20180810,126.9120309,37.4816340
신월메디칼약국,양천구,서울특별시 양천구 남부순환로 329 (신월동),20180813,126.8275229,37.5376224
기쁨약국,광진구,서울특별시 광진구 면목로 190 1층 (중곡동),20180813,127.0833573,37.5699491
스타빌약국,도봉구,서울특별시 도봉구 노해로63길 84-9 창동 SR스타빌 3층 302호 (창동),20180820,127.0472832,37.6525344
학동약국,강남구,서울특별시 강남구 학동로 203 1층 (논현동),20180820,127.0312001,37.5144327
행복을 주는 약국,용산구,"서울특별시 용산구 새창로 70 212호 (도원동, 도원동삼성래미안)",20180820,126.9552549,37.5383839
나음온누리약국,강동구,서울특별시 강동구 올림픽로 620 예투빌딩 1층 (성내동),20180823,127.1231362,37.5367954
도남희약국,관악구,서울특별시 관악구 난향2길 8 1층 (신림동),20180823,126.9185431,37.4633347
샘약국,서초구,서울특별시 서초구 사임당로 38 큐브플러스 2층 202-2호 (서초동),20180827,127.0142926,37.4880847
경희일번약국,강동구,서울특별시 강동구 동남로 889 101호 (명일동),20180827,127.1559488,37.5530545
명일로약국,강동구,서울특별시 강동구 명일로 270 1층 (길동),20180828,127.1477709,37.5426064
종로프라자약국,도봉구,서울특별시 도봉구 노해로65길 14-3 1층 (창동),20180903,127.0467721,37.6520779
바른약국,영등포구,서울특별시 영등포구 선유로 138 롯데마트 양평점 지하1층 (양평동3가),20180903,126.8915720,37.5260659
청백약국,강북구,서울특별시 강북구 삼양로 623 1층 (우이동),20180903,127.0135812,37.6584383
참사랑약국,은평구,서울특별시 은평구 응암로 323 (응암동),20180905,126.9218733,37.6002002
늘기쁜약국,도봉구,서울특별시 도봉구 도봉로 726 1층 (방학동),20180910,127.0438571,37.6691624
타워약국,송파구,서울특별시 송파구 올림픽로 96 동신빌딩 105호 (잠실동),20180911,127.0812295,37.5114713
힘찬약국,광진구,서울특별시 광진구 뚝섬로 631-1 1층 (자양동),20180911,127.0800009,37.5320483
셀럽약국,송파구,서울특별시 송파구 올림픽로 145 리센츠 2층 2A29호 (잠실동),20180912,127.0870103,37.5119636
위드팜바른약국,강남구,서울특별시 강남구 일원로 115 1층 109호 (일원동),20180914,127.0844597,37.4840224
엄마약국,강북구,서울특별시 강북구 도봉로14길 7-8 1층 (미아동),20180917,127.0305687,37.6156988
수온누리약국,금천구,서울특별시 금천구 시흥대로 201 삼성홈플러스 B1층 (시흥동),20180919,126.9007948,37.4519048
예쁜약국,동작구,서울특별시 동작구 서달로 166 2층 (흑석동),20180919,126.9628895,37.5077685
용산오늘약국,용산구,서울특별시 용산구 새창로 217 용산토투밸리 1층 (한강로2가),20180920,126.9677944,37.5302252
상아약국,중랑구,서울특별시 중랑구 용마산로 494 상아빌딩 1층 (망우동),20180921,127.1002490,37.5949291
강남센느약국,강남구,서울특별시 강남구 테헤란로4길 6 122호 (역삼동),20180927,127.0293433,37.4977508
이화약국,종로구,"서울특별시 종로구 대학로5길 57 1,2층 (연건동)",20180928,127.0015857,37.5796275
유킹스파머시메디바움약국,서초구,서울특별시 서초구 효령로 177 1층 (서초동),20180928,127.0033891,37.4827963
태능약국,노원구,서울특별시 노원구 공릉로 99 서울동아의원 1층 (공릉동),20181001,127.0781930,37.6190886
파스텔약국,서초구,서울특별시 서초구 신반포로33길 27 파스텔프라자 103호 (잠원동),20181001,127.0100932,37.5104312
조은약국,관악구,서울특별시 관악구 구암길 98 관악드림타운아파트 1층 104호 (봉천동),20181001,126.9471931,37.4917260
바른약국,은평구,서울특별시 은평구 통일로 842 범서빌딩 2층 (불광동),20181002,126.9220944,37.6186820
선릉타워약국,강남구,서울특별시 강남구 테헤란로 326 역삼 아이타워 지하1층 (역삼동),20181005,127.0470436,37.5035425
녹번온누리약국,은평구,서울특별시 은평구 통일로 626 유림빌딩 101호 (녹번동),20181011,126.9354251,37.6024806
태평양약국,금천구,서울특별시 금천구 금하로25길 1 (시흥동),20181012,126.9088475,37.4512692
성수메디칼약국,성동구,서울특별시 성동구 아차산로 113 삼진빌딩 3층 302호 (성수동2가),20181012,127.0568898,37.5446283
문정건강약국,송파구,서울특별시 송파구 송파대로 98 선도빌딩 1층 (문정동),20181015,127.1261982,37.4797110
홀리데이약국,성북구,서울특별시 성북구 종암로 123 104호 (종암동),20190424,127.0331730,37.6010031
더선약국,양천구,"서울특별시 양천구 공항대로 630 1층 (목동, 어바니엘)",20181022,126.8747144,37.5465353
아이파크약국,강동구,"서울특별시 강동구 동남로79길 26 상가동 101호 (고덕동, 고덕아이파크)",20181022,127.1556425,37.5589031
누리약국,송파구,서울특별시 송파구 올림픽로37길 130 파크리오 A동 511호 (신천동),20181022,127.1045119,37.5207845
늘봄약국,관악구,서울특별시 관악구 인헌길 12 1층 (봉천동),20181023,126.9668144,37.4751310
서울센터약국,관악구,서울특별시 관악구 관악로 165 홍빌딩 2층 (봉천동),20181030,126.9521225,37.4800778
희망약국,용산구,서울특별시 용산구 원효로 171 신영빌딩 1층 (원효로2가),20181031,126.9617592,37.5356180
종로약국,중랑구,서울특별시 중랑구 면목로 319 1층 (면목동),20181101,127.0882283,37.5804403
초원약국,동대문구,서울특별시 동대문구 제기로 84 1층 (청량리동),20181101,127.0425275,37.5865503
인헌온누리약국,관악구,서울특별시 관악구 인헌길 35 영빌딩 1층 (봉천동),20181101,126.9669416,37.4738812
파크리오오렌지약국,송파구,서울특별시 송파구 올림픽로37길 130 파크리오 A동 5층 516호 (신천동),20181105,127.1045119,37.5207845
참사랑약국,동작구,"서울특별시 동작구 신대방1가길 38 105동 3층 309호 (신대방동, 동작상떼빌아파트)",20181105,126.9067147,37.4876928
경희정문약국,동대문구,서울특별시 동대문구 경희대로 22-1 1층 (회기동),20181112,127.0528766,37.5935261
발산에이스약국,강서구,서울특별시 강서구 강서로 360 솔레드림 109호 (내발산동),20181112,126.8384047,37.5576973
신공덕약국,마포구,"서울특별시 마포구 백범로 212 2층 (신공덕동, 대우 월드마크마포)",20181114,126.9535163,37.5424867
이촌사랑약국,용산구,서울특별시 용산구 이촌로 300 제1호 (이촌동),20181114,126.9803225,37.5178365
정성약국,노원구,서울특별시 노원구 한글비석로 263 성모빌딩 302-1호 (중계동),20181115,127.0764888,37.6512198
2층써밋약국,용산구,"서울특별시 용산구 한강대로 69 상가동 2층 222-2호 (한강로2가, 용산푸르지오써밋)",20181116,126.9651744,37.5273235
신사웰약국,강남구,서울특별시 강남구 강남대로 596 극동빌딩 1층 (논현동),20181116,127.0203720,37.5150269
튼튼온누리약국,광진구,서울특별시 광진구 아차산로 450-2 1층 (구의동),20181119,127.0924764,37.5387334
포도나무약국,영등포구,서울특별시 영등포구 선유로 70 우리벤처타운2 2동 2층 209-1호 (문래동3가),20181119,126.8901620,37.5201718
연수온누리약국,노원구,서울특별시 노원구 동일로197길 11 공삼빌딩 102호 (공릉동),20181119,127.0706552,37.6285113
행복한우리들약국,송파구,서울특별시 송파구 석촌호수로 142 102호 (삼전동),20181119,127.0927695,37.5069644
플러스튼튼약국,관악구,서울특별시 관악구 남부순환로 1635 1층 (신림동),20181119,126.9322972,37.4848493
다온약국,동대문구,서울특별시 동대문구 답십리로 273 한양빌딩 1층 (장안동),20181120,127.0708170,37.5726631
동인약국,관악구,서울특별시 관악구 인헌길 76 1층 (봉천동),20181122,126.9666585,37.4721153
한소망약국,관악구,서울특별시 관악구 신림로 198 1층 (신림동),20181123,126.9368917,37.4750625
송송약국,종로구,서울특별시 종로구 종로 19 르메이에르종로타운1 1층 116-1호 (종로1가),20181126,126.9798606,37.5708345
따뜻한약국,종로구,서울특별시 종로구 종로 19 르메이에르종로타운1 304-1호 (종로1가),20181126,126.9798606,37.5708345
서강약국,관악구,서울특별시 관악구 문성로 219 (신림동),20181126,126.9282820,37.4795252
은행약국,서대문구,서울특별시 서대문구 통일로 455 경인주유소 1층 (홍제동),20181129,126.9433484,37.5891267
송약국,양천구,서울특별시 양천구 오목로 325 지하1층 (목동),20181129,126.8737710,37.5249850
서경약국,서초구,서울특별시 서초구 방배로 95 2층 (방배동),20181130,126.9964077,37.4826852
다올약국,중랑구,서울특별시 중랑구 봉우재로 232 현문학원 1층 (망우동),20181203,127.0986252,37.5951109
친절한 명성약국,중랑구,서울특별시 중랑구 신내로16길 17 1층 104호 (신내동),20181203,127.0972088,37.6142413
하이온누리약국,금천구,서울특별시 금천구 가산디지털1로 145 에이스하이엔드타워3차 105호 (가산동),20181203,126.8815995,37.4781692
시민약국,은평구,서울특별시 은평구 은평로 136 은경빌딩 104호 (응암동),20181203,126.9230552,37.6002712
해그린약국,영등포구,서울특별시 영등포구 여의대방로 375 아일렉스타워 108호 (여의도동),20181203,126.9307891,37.5189066
수유대한약국,강북구,서울특별시 강북구 도봉로81길 12 1층 (수유동),20181204,127.0224155,37.6352529
정릉아름드리약국,성북구,서울특별시 성북구 보국문로 33 1층 106호 (정릉동),20181204,127.0101198,37.6073767
중앙대영약국,강동구,서울특별시 강동구 동남로 635 (둔촌동),20181206,127.1492309,37.5311659
선경약국,강북구,서울특별시 강북구 도봉로77길 9 1층 (수유동),20181206,127.0227608,37.6335036
우리캐슬약국,금천구,"서울특별시 금천구 시흥대로 291 (독산동, 금천롯데캐슬골드파크3차)",20181207,126.8972935,37.4599811
이촌약국,용산구,"서울특별시 용산구 이촌로 224 301호 (이촌동, 리버뷰맨션)",20181207,126.9718784,37.5201913
밝은약국,은평구,서울특별시 은평구 불광로 27 1층 (대조동),20181210,126.9288153,37.6107726
새힘약국,강동구,서울특별시 강동구 올림픽로 806 까사팔공육 1층 101호 (암사동),20181210,127.1288880,37.5528917
더푸른약국,관악구,"서울특별시 관악구 관악로 195 1층 104호 (봉천동, 관악위버폴리스)",20181213,126.9531143,37.4828207
새봄약국,대전유성구,대전광역시 유성구 엑스포로 488 5층 5-2-5호 (전민동),20140210,127.4056675,36.3999827
이안약국,부산진구,부산광역시 부산진구 신암로 70 서면항도타워맨션 B동 110호 (범천동),20190527,129.0544478,35.1479327
대창약국,신안군,전라남도 신안군 안좌면 중부로 852 (안좌면),20080429,126.1253444,34.7544792
한마음약국,평택시,경기도 평택시 팽성읍 동서촌로 74 (팽성읍),19931108,127.0604049,36.9644341
하나약국,상주시,경상북도 상주시 중앙로 196 (남성동),20061023,128.1597979,36.4155202
수정약국,군산시,전라북도 군산시 대학로 10 (영화동),19950322,126.7126046,35.9887774
다나아약국,광주서구,광주광역시 서구 상무자유로 170 지상2층 (치평동),20031218,126.8527078,35.1512770
서부실로암약국,대전서구,대전광역시 서구 도산로 51 1층 (도마동),20001103,127.3795078,36.3133788
동남약국,대구서구,대구광역시 서구 통학로 27 (내당동),19970430,128.5640958,35.8626380
하니약국,노원구,서울특별시 노원구 동일로 1099 (공릉동),20010628,127.0715611,37.6279260
광장약국,광주광산구,광주광역시 광산구 송도로 230 (송정동),20040901,126.7970462,35.1343584
건강한약국,김제시,전라북도 김제시 도작로 114 (검산동),20060127,126.8997026,35.8046269
미리내약국,대구남구,대구광역시 남구 앞산순환로 675 (봉덕동),19830604,128.5984413,35.8331259
메디팜큰사랑약국,세종시,"세종특별자치시 남세종로 458 110호 (보람동, 아리랑빌딩)",20161116,127.2892522,36.4769962
남대구약국,대구남구,대구광역시 남구 대명로 297-1 (대명동),19920229,128.5884499,35.8445723
그린약국,광주서구,광주광역시 서구 운천로56번길 10 (금호동),19941125,126.8599665,35.1374113
세원약국,은평구,서울특별시 은평구 갈현로 8 (신사동),20040430,126.9104122,37.5985583
바나나약국,부산연제구,부산광역시 연제구 아시아드대로 52 (거제동),20170817,129.0681770,35.1892779
모범약국,순천시,전라남도 순천시 삼산로 103-11 1층 (용당동),20170816,127.4937375,34.9739596
해약국,제주시,제주특별자치도 제주시 서광로 263 (삼도일동),20170817,126.5245771,33.5002081
지하철약국,부산서구,부산광역시 서구 구덕로 170 (토성동3가),20040103,129.0197861,35.1007070
새서종약국,양평군,경기도 양평군 서종면 북한강로 789 (서종면),20060901,127.3488793,37.6075826
메디칼하나약국,대구남구,대구광역시 남구 성당로 166 (대명동),20070115,128.5701170,35.8487432
조은약국,예산군,충청남도 예산군 예산읍 역전로 106 (예산읍),20030701,126.8299168,36.6884412
동아약국,울산울주군,울산광역시 울주군 청량면 덕하로 234 (),20170529,129.3051138,35.4917533
지하철약국,송파구,"서울특별시 송파구 올림픽로 265 (잠실동, 잠실역지하상가 B-13호)",19820812,127.1003127,37.5133190
건강약국,이천시,경기도 이천시 장호원읍 장감로 77 (장호원읍),20110321,127.6310324,37.1174563
마재우리약국,광주서구,광주광역시 서구 화개1로79번길 3 1층 104호 (금호동),20010313,126.8547951,35.1309322
유일약국,대구남구,대구광역시 남구 양지로 20-4 (대명동),19801008,128.5747683,35.8509083
신국제약국,부산해운대구,"부산광역시 해운대구 좌동순환로 402 110동 105호 (중동, 래미안해운대)",20050822,129.1765214,35.1636159
쌍용부광약국,천안서북구,"충청남도 천안시 서북구 충무로 155 (쌍용동, 우리척병원)",20030528,127.1245932,36.7939071
명동약국,대구중구,대구광역시 중구 큰장로 98-1 (대신동),19700908,128.5771546,35.8676431
신상대원약국,성남중원구,"경기도 성남시 중원구 희망로 356 1층 107호 (상대원동, 휴먼프라자)",20161108,127.1584123,37.4374903
샬롬약국,성남분당구,"경기도 성남시 분당구 양현로94번길 21 112,113호 (이매동, 분당코아)",20060914,127.1263875,37.3909844
시장약국,부산북구,"부산광역시 북구 효열로 221 201호 (금곡동, 금곡제일상가)",20010508,129.0193691,35.2639142
명문약국,광주서구,광주광역시 서구 대남대로 439-1 1층 (농성동),20170626,126.8870206,35.1495702
토마토약국,전주완산구,전라북도 전주시 완산구 모악로 4746 (평화동1가),20070816,127.1322570,35.7930540
온수골온누리약국,수원권선구,경기도 수원시 권선구 동수원로242번길 6 (권선동),19931007,127.0349808,37.2509478
제일약국,대전유성구,대전광역시 유성구 월드컵대로275번길 39 (구암동),20000313,127.3313890,36.3503758
삼성약국,부산기장군,부산광역시 기장군 기장읍 차성동로 171 (기장읍),20151216,129.2170237,35.2532556
참고은약국,안산단원구,"경기도 안산시 단원구 광덕대로 174 506호 (고잔동, 월드타운비동)",20050914,126.8310348,37.3119381
대학당약국,영천시,경상북도 영천시 시장로 57-1 (완산동),19970509,128.9366170,35.9635848
메디케어약국,서초구,"서울특별시 서초구 신반포로 157 405호 (잠원동, 일동빌딩)",20000706,127.0014772,37.5055124
박선영약국,강동구,서울특별시 강동구 고덕로 254 이화빌딩 (명일동),20180611,127.1537015,37.5546840
성모약국,서산시,충청남도 서산시 고운로 219 (동문동),19950415,126.4595599,36.7837878
세심약국,성동구,서울특별시 성동구 마장로35길 76 1층 (마장동),19980615,127.0420171,37.5702629
신경희약국,강동구,서울특별시 강동구 동남로71길 24 (명일동),20040823,127.1547930,37.5519637
서울약국,공주시,충청남도 공주시 신금1길 54 (신관동),20080728,127.1460005,36.4769542
백제약국,청주서원구,충청북도 청주시 서원구 청남로 2114 (모충동),20080321,127.4878721,36.6208104
메디칼박상일약국,부산사상구,부산광역시 사상구 사상로 284 (덕포동),20060309,128.9828308,35.1700752
성원약국,안산단원구,경기도 안산시 단원구 북촌3길 19-1 1층 102호 (선부동),19980423,126.8056212,37.3432193
동남약국,부산동래구,부산광역시 동래구 수안로28번길 2 (수안동),19880115,129.0869302,35.1963900
새한약국,인천부평구,인천광역시 부평구 부흥로 247 (부평동),19910710,126.7193027,37.4990195
백두산약국,광주시,경기도 광주시 오포읍 오포로 120 (오포읍),20070719,127.1794667,37.3438461
한아름약국,천안서북구,충청남도 천안시 서북구 직산읍 봉주로 51 (직산읍),20060727,127.1522257,36.8774792
동일약국,금산군,충청남도 금산군 금산읍 뒷담말길 22 (삼광빌딩),19690715,127.4913335,36.1040254
수온누리약국,군산시,전라북도 군산시  대학로 248-248 (나운동),20040703,126.6983041,35.9709419
신동약국,금산군,충청남도 금산군 남일면 신동길 239 (심천치유휴양림),20131125,127.4851526,35.9946617
도담약국,여주시,경기도 여주시 현암3길 1 103호 (현암동),20170828,127.6417868,37.3079260
용사약국,계룡시,충청남도 계룡시 신도안면 계룡대로 663 (본청약국),20140922,127.2198238,36.3002727
종우약국,광진구,서울특별시 광진구 동일로 34 (자양동),19870622,127.0609029,37.5358894
명보약국,대구달서구,대구광역시 달서구 계대동문로 98 (신당동),20040401,128.5030965,35.8551681
대우약국,부산사하구,"부산광역시 사하구 다대낙조1길 12 상가동 203호 (다대동, 다대대우아파트)",20180601,128.9670779,35.0493957
센텀중앙약국,부산해운대구,부산광역시 해운대구 해운대로 369 해운대센텀메디칼센터 1층 (우동),20180615,129.1377484,35.1701999
새봄약국,부산진구,부산광역시 부산진구 새싹로 10-1 1층 (부전동),20181203,129.0583775,35.1590632
성민약국,부산해운대구,부산광역시 해운대구 아랫반송로 31 성민약국 (반송동),20180814,129.1491284,35.2247046
신제일약국,부산동래구,부산광역시 동래구 안남로 23 보림프라자 109호 (낙민동),20180910,129.0949235,35.1946196
세창당약국,부산서구,부산광역시 서구 구덕로 113 1층 (충무동1가),20180501,129.0235770,35.0962701
봄약국,부산금정구,부산광역시 금정구 구서로 10 101호 (구서동),20180611,129.0901242,35.2468686
프라임조은약국,부산연제구,부산광역시 연제구 중앙대로 1090 (연산동),20140501,129.0810488,35.1847764
그린약국,서산시,충청남도 서산시 안견로 190 (동문동),20140501,126.4590148,36.7812006
하나약국,도봉구,서울특별시 도봉구 마들로 697 (도봉동),20140501,127.0463994,37.6725221
힐링팜약국,인천부평구,"인천광역시 부평구 부평대로51번길 7 101,102호 (부평동, 제이원부평메디피아)",20140826,126.7221491,37.4959019
부천힐링팜약국,부천시,경기도 부천시 장말로 316-1 1층 (심곡동),20140716,126.7771200,37.4908444
가야산약국,합천군,경상남도 합천군 가야면 황산3길 6 (가야면),20140715,128.1384250,35.7614667
메디칼안약국,인천부평구,인천광역시 부평구 부평대로 171-9 (청천동),20140716,126.7201876,37.5065391
하나약국,부안군,전라북도 부안군 부안읍 부령로 29 (부안읍),20140715,126.7462642,35.7319912
라임약국,의정부시,"경기도 의정부시 회룡로 178 109호 (장암동, 발곡프라자)",20140717,127.0534967,37.7263725
푸른솔약국,용인수지구,경기도 용인시 수지구 광교중앙로 301 (상현동),20120801,127.0686407,37.2970124
녹십자약국,인천서구,인천광역시 서구 서곶로 293 1층 (심곡동),20150601,126.6764661,37.5434993
하나로약국,용인기흥구,"경기도 용인시 기흥구 구갈로 70 107호 (구갈동, 메가타운)",20120801,127.1116745,37.2805353
은혜온누리약국,하남시,경기도 하남시 대청로 33 (신장동),20120801,127.2160105,37.5411027
굿모닝약국,부산금정구,부산광역시 금정구 서동로 168 송월빌딩 1층 102호 (서동),20181004,129.1047754,35.2144484
제일약국,부산연제구,부산광역시 연제구 신촌로 51 (거제동),20160718,129.0733737,35.1842352
국제약국,순천시,전라남도 순천시 중앙1길 4 국제약국 1층 (장천동),20180201,127.4877248,34.9478093
서울약국,용산구,"서울특별시 용산구 한강대로 312 2층 (갈월동, 하나은행, 우태하피부과, 서울약국)",20120801,126.9722479,37.5461080
노원행복한약국,노원구,"서울특별시 노원구 상계로 63-7 1층 (상계동, 청우빌딩)",20120801,127.0618955,37.6565125
두리약국,고성군,강원도 고성군 거진읍 거진길 39 (거진읍),20150304,128.4547944,38.4474389
사랑플러스약국,대구달서구,"대구광역시 달서구 당산로 35 사동 112호 (본리동, 달서종합상가)",20120801,128.5442456,35.8402006
세란약국,서대문구,서울특별시 서대문구 연세로 39 (창천동),20120801,126.9366378,37.5591909
신사수약국,강남구,서울특별시 강남구 압구정로28길 28 1층 일부호 (신사동),20140429,127.0275307,37.5247742
그린약국,대구달성군,대구광역시 달성군 현풍면 테크노중앙대로 243 타임스퀘어동 1층 126호,20160707,128.4573906,35.6921390
대정온누리약국,서귀포시,제주특별자치도 서귀포시 대정읍 하모중앙로 76 1층 3호,20160707,126.2518131,33.2213751
메디팜우리약국,당진시,충청남도 당진시 송악읍 송악로 9-3 (),20160801,126.6928284,36.9045725
솔약국,장흥군,전라남도 장흥군 장흥읍 동교2길 13-21 (),20160802,126.9064651,34.6788081
메디팜신약국,창원의창구,"경상남도 창원시 의창구 사화로 396 (팔용동, 디오 오토 갤러리 112,113호)",20160706,128.6428483,35.2369404
홍은약국,울산남구,울산광역시 남구 수암로105번길 3 1층 (신정동),20190801,129.3192138,35.5292173
개금현대약국,부산진구,부산광역시 부산진구 엄광로 33 (개금동),20180604,129.0197751,35.1483530
참좋은약국,부산동구,부산광역시 동구 고관로 29 1층 (초량동),20180604,129.0424450,35.1221128
개금금성당약국,부산진구,부산광역시 부산진구 냉정로 217 (개금동),20180601,129.0235376,35.1511487
정다운약국,부산동구,부산광역시 동구 고관로 128 1층 (수정동),20180611,129.0476005,35.1296918
동아정문약국,부산서구,부산광역시 서구 대신공원로 27 1층 (서대신동3가),20180620,129.0164692,35.1203798
더(The)약국,부산사상구,부산광역시 사상구 대동로 137 (학장동),20180625,128.9821381,35.1403952
가까운약국,부산진구,부산광역시 부산진구 가야대로 779 (부전동),20180630,129.0568049,35.1579616
열린약국,부산동구,부산광역시 동구 고관로 153-1 (좌천동),20180702,129.0498052,35.1311652
행복약국,부산동구,부산광역시 동구 중앙대로 365 부산일보 1층 (수정동),20180702,129.0480014,35.1285503
오즈약국,부산중구,부산광역시 중구 광복중앙로34번길 13 1층 (대청동2가),20180702,129.0315472,35.1023812
미남정약국,부산동래구,부산광역시 동래구 아시아드대로 239-1 월드 메디컬 타워 (온천동),20180702,129.0674343,35.2054338
수정온누리약국,부산동구,부산광역시 동구 고관로 121 1층 (수정동),20180702,129.0469101,35.1294637
나무약국,부산연제구,부산광역시 연제구 과정로 180 1층 102호 (연산동),20180703,129.1074319,35.1875404
우리약국,부산금정구,부산광역시 금정구 공단로 5 (금사동),20180704,129.1097478,35.2160257
새보림약국,부산동구,부산광역시 동구 중앙대로 531 1층 (범일동),20180716,129.0562198,35.1406424
선약국,부산진구,부산광역시 부산진구 시민공원로19번길 7 (부암동),20180730,129.0517423,35.1634757
샛별약국,부산해운대구,"부산광역시 해운대구 재반로63번길 32 1층 (재송동, 창광빌라)",20180723,129.1254963,35.1849874
보광약국,부산연제구,부산광역시 연제구 연수로 219-1 1층 (연산동),20180723,129.0948564,35.1737610
희망약국,부산동래구,"부산광역시 동래구 명륜로 170 201동 205호 (명륜동, 명륜아이파크1단지)",20180730,129.0834007,35.2091033
건강한온누리약국,부산해운대구,부산광역시 해운대구 해운대로61번길 106 (반여동),20180730,129.1298643,35.1946522
세인약국,부산해운대구,부산광역시 해운대구 반여로167번길 76 (반여동),20180801,129.1234328,35.2080054
The편한약국,부산금정구,부산광역시 금정구 서동로 160 (서동),20180809,129.1038981,35.2146585
대림사약국,부산해운대구,부산광역시 해운대구 해운대로161번길 40 (재송동),20180813,129.1253892,35.1853090
보경약국,부산사상구,부산광역시 사상구 대동로 159 (학장동),20180821,128.9834413,35.1415312
유진약국,부산남구,부산광역시 남구 진남로127번길 8 (대연동),20180821,129.0808960,35.1385714
해인약국,부산금정구,부산광역시 금정구 수림로 55 1층 (장전동),20180827,129.0862952,35.2398076
마리나약국,부산해운대구,부산광역시 해운대구 해운대해변로 154 마리나센타 (우동),20180827,129.1485210,35.1581185
다송약국,부산사하구,부산광역시 사하구 다대로 381 (다대동),20180901,128.9785767,35.0687321
온천약국,부산해운대구,부산광역시 해운대구 중동1로 39 예담빌딩 1층 (중동),20180903,129.1635927,35.1622241
정담약국,부산해운대구,부산광역시 해운대구 선수촌로21번길 37 홈플러스 부산반여점 1층 (반여동),20180903,129.1157025,35.1965878
장전온누리약국,부산금정구,부산광역시 금정구 금정로 151-1 1층 (장전동),20180903,129.0876790,35.2382313
비타민약국,부산강서구,부산광역시 강서구 명지국제8로 241 금남빌딩 1층 102호 (명지동),20180903,128.9192339,35.0984745
열린약국,부산사하구,"부산광역시 사하구 다대로 473 상가1동 6층01호 (다대동, 다대포현대아파트)",20180908,128.9783573,35.0611812
사계절 손약국,부산금정구,부산광역시 금정구 서동로 158 1층 (서동),20180910,129.1036896,35.2146371
바른약국,부산진구,부산광역시 부산진구 중앙대로 801 102호 (부전동),20190626,129.0633429,35.1634601
비타민약국,부산사상구,부산광역시 사상구 엄궁로 91 (엄궁동),20180919,128.9750525,35.1244635
온정약국,부산사상구,부산광역시 사상구 가야대로 274-3 (주례동),20180921,129.0025987,35.1501437
사상열린약국,부산사상구,부산광역시 사상구 사상로 246 102호 (괘법동),20181015,128.9825698,35.1667646
새강남약국,부산진구,부산광역시 부산진구 서면로 74 아이온시티빌딩 1층 (부전동),20181105,129.0581365,35.1572152
태광약국,부산영도구,부산광역시 영도구 태종로 327 1층 (청학동),20181101,129.0615542,35.0965149
이룸약국,부산남구,부산광역시 남구 수영로 216-2 아마빌레산후조리원 (대연동),20181106,129.0903285,35.1348375
귀빈약국,부산진구,부산광역시 부산진구 새싹로 218 1층 (초읍동),20181110,129.0488434,35.1756096
한마음약국,부산동래구,부산광역시 동래구 충렬대로 92 1층 (온천동),20181108,129.0709002,35.2071986
금새약국,부산동래구,부산광역시 동래구 사직북로 25-1 (사직동),20181112,129.0600865,35.1981387
동대제일약국,부산서구,부산광역시 서구 동대로 16 (동대신동3가),20181112,129.0176359,35.1191579
명성약국,부산수영구,부산광역시 수영구 과정로 63 (망미동),20181113,129.1070680,35.1770625
바른약국,부산해운대구,부산광역시 해운대구 중동1로 15-3 1층 (우동),20181126,129.1614624,35.1636295
소망약국,부산중구,부산광역시 중구 동영로 6-2 1층 (동광동5가),20181128,129.0333422,35.1077958
연산현약국,부산연제구,부산광역시 연제구 반송로 5 흥국빌딩 1층 (연산동),20181129,129.0820899,35.1867723
만수약국,부산강서구,부산광역시 강서구 명지국제5로 42 동진빌딩 1층 103호 (명지동),20181205,128.9202473,35.0976643
우리약국,부산기장군,부산광역시 기장군 정관읍 정관로 561 정관타워 107호,20181208,129.1753709,35.3220122
안락고려약국,부산동래구,부산광역시 동래구 안연로 88 1층 (안락동),20181213,129.0980587,35.1952981
부산탑약국,부산북구,부산광역시 북구 백양대로1050번길 2 (구포동),20181217,128.9967580,35.1988337
다드림약국,부산연제구,부산광역시 연제구 아시아드대로 79 1층 (거제동),20181217,129.0668987,35.1915445
엄마맘약국,광주시,경기도 광주시 오포읍 능평로 63 1층 B01호,20180820,127.1658352,37.3521148
서정온누리약국,평택시,경기도 평택시 탄현로 58 103호 (서정동),20180822,127.0539603,37.0576314
아름약국,강남구,서울특별시 강남구 강남대로 364 미왕빌딩 2층 (역삼동),20180528,127.0292939,37.4955498
오메디약국,송파구,서울특별시 송파구 올림픽로37길 130 파크리오 파크리오상가A동 3층 316호 (신천동),20180905,127.1045119,37.5207845
삼주약국,양천구,서울특별시 양천구 신목로 86 (신정동),20180702,126.8747807,37.5223171
현대제이드약국,강동구,서울특별시 강동구 강동대로 155 1층 102호 (성내동),20181101,127.1243201,37.5261529
화생약국,동작구,서울특별시 동작구 노량진로6길 26 1층 (노량진동),20180720,126.9356247,37.5119509
목동씨브이에스약국,양천구,서울특별시 양천구 국회대로 265 1층 (목동),20181017,126.8644839,37.5301878
청우약국,은평구,서울특별시 은평구 은평로9길 13 103호 (응암동),20180920,126.9212430,37.6014280
봄약국,강동구,서울특별시 강동구 천호대로 1116 1층 102-1호 (성내동),20181113,127.1352138,37.5346716
시온약국,종로구,서울특별시 종로구 종로 241-1 1층 (종로5가),20180913,127.0047578,37.5714556
구심당약국,마포구,서울특별시 마포구 월드컵로25길 58 1층 (망원동),20180430,126.9042964,37.5579463
가까운약국,동작구,서울특별시 동작구 상도로 148 1층 (상도동),20181101,126.9359266,37.5027102
신프라자약국,도봉구,서울특별시 도봉구 덕릉로 251 1층 (창동),20181203,127.0391683,37.6401675
오성약국,중랑구,서울특별시 중랑구 신내로 72 원빌딩 (신내동),20180731,127.0956685,37.6054065
송파새길약국,송파구,서울특별시 송파구 송파대로 145 문정 오벨리스크 108호 (문정동),20180711,127.1230445,37.4833620
스마트온누리약국,광진구,서울특별시 광진구 동일로 92-1 1층 (자양동),20181023,127.0635902,37.5408267
울산세이브존약국,울산남구,울산광역시 남구 번영로250번길 9 지하1층 (삼산동),20140915,129.3248082,35.5482699
맑은약국,중랑구,"서울특별시 중랑구 용마산로 486 (망우동, 동해아트빌)",20161101,127.0997326,37.5943105
청림한약국,익산시,전라북도 익산시 선화로13길 40 (모현동1가),20140829,126.9438268,35.9512468
우리사랑약국,노원구,서울특별시 노원구 노원로19길 23 1층 105호 (중계동),20160502,127.0695599,37.6446516
토마토약국,천안서북구,충청남도 천안시 서북구 쌍용대로 223-1 (성정동),20161005,127.1349328,36.8174389
나눔온누리약국,인천계양구,"인천광역시 계양구 동양로 101 104호 (동양동, 명일프라자)",20160809,126.7561554,37.5590179
학정조은약국,대구북구,대구광역시 북구 학정동로 45 1층 (학정동),20141013,128.5671876,35.9478970
성모후문약국,대구수성구,대구광역시 수성구 고산로 104-4 (신매동),20160804,128.7055794,35.8399048
신세명약국,대구중구,대구광역시 중구 명륜로 68 1층 (남산동),20180221,128.5917596,35.8613580
김약국,진주시,경상남도 진주시 진주대로 1184 (봉곡동),20140501,128.0736919,35.1950609
고양새물약국,고양덕양구,경기도 고양시 덕양구 혜음로 36 (고양동),20140501,126.9022405,37.7036307
제인약국,서대문구,"서울특별시 서대문구 통일로 442-3 (홍제동, 1층, 2층)",20170525,126.9447948,37.5887108
용봉종로약국,광주북구,광주광역시 북구 반룡로27번길 40 (용봉동),20161205,126.9018206,35.1807799
진약국,부산해운대구,"부산광역시 해운대구 재반로 199 1층 (반여동, 새아빌딩)",20140507,129.1304647,35.1950948
밝은약국,고흥군,전라남도 고흥군 고흥읍 터미널길 24-1 (),20160801,127.2815280,34.6073425
남포지하철약국,부산중구,"부산광역시 중구 구덕로 12 상가 39호 (남포동1가, 도시철도 남포역)",20160404,129.0342868,35.0980167
밝은세상하나약국,동작구,서울특별시 동작구 사당로 236 (사당동),20050204,126.9738228,37.4831712
대웅약국,수원장안구,경기도 수원시 장안구 경수대로 998 (송죽동),20020617,127.0025767,37.3059535
빠른대학약국,강서구,서울특별시 강서구 마곡중앙4로 74 101~103호 (마곡동),20190516,126.8349216,37.5578848
도영약국,금천구,서울특별시 금천구 독산로50길 90 (시흥동),19820818,126.9091278,37.4623842
성약국,부천시,경기도 부천시 지봉로 116 (역곡동),20100329,126.8122023,37.4884678
광장약국,포천시,경기도 포천시 일동면 화동로 1058-1 (),19950607,127.3180602,37.9577310
태평약국,수원팔달구,경기도 수원시 팔달구 정조로 784-1 (팔달로2가),20060501,127.0169067,37.2780643
팜메이트하나로약국,양천구,서울특별시 양천구 오목로 68 (신월동),20031201,126.8451830,37.5225849
유타워 온누리약국,용인수지구,경기도 용인시 수지구 신수로 767 분당수지 U-TOWER A동 241호 (동천동),20180806,127.1014463,37.3381349
장현민약국,청주상당구,충청북도 청주시 상당구 상당로 47 1층 110호 (남문로2가),20190417,127.4903676,36.6326381
녹십자약국,김천시,경상북도 김천시 자산로 42-1 (모암동),20001121,128.1270387,36.1197264
인터팜이화약국,강남구,서울특별시 강남구 도산대로38길 11 102-4호 (논현동),20001130,127.0323587,37.5199920
오렌지약국,관악구,"서울특별시 관악구 관악로 168 1층 111호 (봉천동, 대우디오슈페리움2단지)",20180508,126.9530995,37.4801769
누엘약국,순천시,전라남도 순천시 조례1길 10-26 (조례동),20110531,127.5222126,34.9599395
생생온누리약국,수원권선구,경기도 수원시 권선구 금곡로196번길 76 1층 1-2호 (금곡동),20190903,127.1510791,37.2962402
우리선약국,강동구,"서울특별시 강동구 동남로49길 21-15 1,지1층 (둔촌동)",20110804,127.1486654,37.5314130
현지당약국,동대문구,서울특별시 동대문구 고산자로 445-1 (제기동),19991201,127.0379709,37.5795031
기린약국,용인수지구,"경기도 용인시 수지구 성복2로 108-2 (성복동,웰스톤갤러리B109~B110호)",20100525,127.0746108,37.3157623
전승완약국,성남중원구,경기도 성남시 중원구 광명로 372 (금광동),19810701,127.1672104,37.4464342
명동하이약국,중구,"서울특별시 중구 명동9길 23 1층 (을지로2가, 한양빌딩)",20160809,126.9845023,37.5648981
서초로하스약국,서초구,"서울특별시 서초구 서초중앙로 39 1층 (서초동, 장수빌딩)",20090112,127.0157273,37.4852908
우리들약국,서초구,"서울특별시 서초구 서초중앙로 230 105호 (반포동, 동화반포프라자빌딩)",20030501,127.0120781,37.5021689
중앙온누리약국,도봉구,서울특별시 도봉구 덕릉로 241 1층 (창동),20150121,127.0385138,37.6393884
호원엠약국,강동구,서울특별시 강동구 성내로 66 (성내동),20010108,127.1270918,37.5276513
메디피아약국,강남구,"서울특별시 강남구 강남대로 242 1층 (도곡동, 크리스탈빌딩)",20170703,127.0341031,37.4853730
오약국,광명시,경기도 광명시 광명로831번길 12 (광명동),19910711,126.8504885,37.4738812
중앙메디칼약국,수원영통구,"경기도 수원시 영통구 동수원로 520 1층 (매탄동, 영주빌딩)",19850109,127.0476023,37.2729987
이화약국,동작구,서울특별시 동작구 양녕로38길 2 (상도1동),20020201,126.9506927,37.5049166
신세기약국,수원장안구,경기도 수원시 장안구 팔달로 271 (영화동),19980106,127.0143663,37.2895592
마산삼성약국,창원마산회원구,"경상남도 창원시 마산회원구 구암남2길 2 (구암동, 선강약국)",20160601,128.5910253,35.2432675
한빛평화약국,동작구,서울특별시 동작구 시흥대로 664 (신대방동),20051128,126.9084400,37.4907024
송천우리약국,전주덕진구,전라북도 전주시 덕진구 송천중앙로 207 (송천동1가),20080529,127.1211964,35.8654801
경도약국,영등포구,서울특별시 영등포구 여의대방로 383 (여의도동),20081218,126.9315136,37.5193464
새난곡약국,관악구,서울특별시 관악구 난곡로 210 2층 (신림동),20110512,126.9185505,37.4737442
제일약국,영등포구,서울특별시 영등포구 신길로 141 지하층 2호 (신길동),20020410,126.9103158,37.5050176
굿모닝약국,서초구,"서울특별시 서초구 신반포로 176 125호 (반포동, 센트럴시티)",20030425,127.0032131,37.5049178
다정약국,부천시,"경기도 부천시 경인옛로 123 104호 (괴안동, 청석빌라 가동)",20051129,126.8048767,37.4811990
관악소망약국,관악구,서울특별시 관악구 남부순환로 1838 2층 (봉천동),20090820,126.9539797,37.4804451
바른약국,강남구,서울특별시 강남구 남부순환로 2927 대치 클래시아 1층 105호 (대치동),20181005,127.0603963,37.4935668
양덕건강한약국,포항북구,경상북도 포항시 북구 천마로 74 (양덕동),20160919,129.3971357,36.0831931
상생약국,부천시,"경기도 부천시 경인옛로 3 107,108호 (소사본동, 소사메디파크)",20160912,126.7931285,37.4819758
현대약국,부산동래구,부산광역시 동래구 금강공원로 3 1층 (온천동),20160930,129.0838287,35.2181283
참사랑약국,수원영통구,"경기도 수원시 영통구 영통로 195 504호 (망포동, 골든스퀘어)",20130124,127.0558690,37.2452924
한라약국,제주시,"제주특별자치도 제주시 월랑로 33 1층 (노형동, 한라빌딩)",20160922,126.4761106,33.4885583
터미널약국,장수군,전라북도 장수군 장계면 한들로 90-1 (),20170419,127.5820638,35.7309181
옵티마금약국,양천구,"서울특별시 양천구 목동중앙남로 100 102동 상가106호 (목동, 성원아파트)",20190222,126.8643955,37.5420345
익산백세약국,익산시,전라북도 익산시 무왕로 919 (신동),20151120,126.9606348,35.9632492
팔달약국,수원팔달구,경기도 수원시 팔달구 정조로 797-1 (팔달로2가),20010102,127.0164340,37.2792714
보람약국,서초구,서울특별시 서초구 서초중앙로 239 (반포동),19980126,127.0108591,37.5032427
연세약국,대구달서구,대구광역시 달서구 야외음악당로 201 101호 (두류동),20160603,128.5569210,35.8536627
맑은샘약국,남양주시,경기도 남양주시 화도읍 창현로 63 1층 5호 (일부),20160602,127.3042060,37.6454526
아름다운약국,문경시,경상북도 문경시 중앙로 203 (흥덕동),20160909,128.2037365,36.6025369
고려약국,함안군,경상남도 함안군 가야읍 함안대로 550 (메디팜고려약국),20170102,128.4058757,35.2757719
이지약국,광명시,경기도 광명시 광복로 68 302호 (철산동),20170101,126.8659401,37.4899400
기준약국,부천시,경기도 부천시 송내대로 38 1층 (송내동),20170101,126.7537704,37.4870210
동아당약국,고성군,경상남도 고성군 회화면 배둔로28번길 7 (회화면),20131028,128.3697783,35.0569158
알파약국,평창군,강원도 평창군 대화면 대화중앙로 141 (대화면),19710522,128.4548592,37.5017051
아란약국,서초구,"서울특별시 서초구 서운로 184 333호 (서초동, 영동프라자)",20001115,127.0231824,37.4997906
일영약국,대전서구,"대전광역시 서구 청사로 228 307호 (둔산동, 청사오피스텔)",20000922,127.3890827,36.3594625
옥천믿음약국,양평군,경기도 양평군 옥천면 북부길9번길 13 (),20110112,127.4602536,37.5209777
광장약국,대구동구,대구광역시 동구 이노밸리로 162 (각산동),20141015,128.7148529,35.8785640
포도나무약국,송파구,"서울특별시 송파구 송파대로32길 15 209호 (가락동, 가락금호아파트)",20141016,127.1162029,37.4967033
한빛약국,평택시,"경기도 평택시 중앙2로 13 1층 114호 (평택동, 센텀스카이빌딩)",20141016,127.0886955,36.9919135
홍대365약국,마포구,서울특별시 마포구 와우산로27길 43 1층 (서교동),20141016,126.9261296,37.5546970
삼화약국,동대문구,서울특별시 동대문구 왕산로 207 1층 (청량리동),20160601,127.0458089,37.5808690
청초약국,속초시,강원도 속초시 중앙로 20 (교동),20160602,128.5793351,38.1981564
명약국,평택시,경기도 평택시 비전5로 11 4층 403호 (비전동),20160530,127.1126122,37.0001234
한마음약국,도봉구,"서울특별시 도봉구 도봉로150길 43 2층 215호 (방학동, ESA 아파트)",20171201,127.0455905,37.6664777
메디칼으뜸약국,양천구,서울특별시 양천구 신정이펜2로 12 이펜하우스타워 104호 (신정동),20190429,126.8328206,37.5126032
정성온누리약국,성동구,"서울특별시 성동구 왕십리로 410 상가L동 3층 319호 (하왕십리동, 센트라스)",20170111,127.0247865,37.5665508
새봄약국,성동구,"서울특별시 성동구 왕십리로 410 상가L동 2층 210-1호 (하왕십리동, 센트라스)",20170111,127.0247865,37.5665508
수송종로약국,군산시,전라북도 군산시 남수송3길 43 (수송동),20170105,126.7152197,35.9613337
자연약국,마포구,"서울특별시 마포구 마포대로 195 4단지상가동 205호 (아현동, 마포래미안푸르지오)",20141016,126.9529188,37.5529598
이화키즈팜약국,마포구,"서울특별시 마포구 마포대로 195 4단지상가동 219호 (아현동, 마포래미안푸르지오)",20141016,126.9529188,37.5529598
다올약국,화성시,경기도 화성시 효행로 1059 104호 (진안동),20171125,127.0426467,37.2147487
21세기연세약국,성남분당구,경기도 성남시 분당구 서현로321번길 10 1층 (서현동),20160329,127.1360479,37.3799841
성전당약국,군포시,"경기도 군포시 고산로211번길 26 104호호 (당정동, 대우프라자Ⅱ)",20120404,126.9502124,37.3438234
가화약국,군포시,"경기도 군포시 군포로 444 101호 (당동, 서일빌딩)",19860818,126.9424239,37.3461985
세명약국,부산중구,부산광역시 중구 광복로 33 (창선동2가),20120410,129.0287992,35.0994886
우리팜약국,부산중구,부산광역시 중구 구덕로 4 (광복동1가),20120411,129.0351219,35.0983169
키다리약국,울산울주군,울산광역시 울주군 범서읍 장검길 79 (범서읍),20140513,129.2515842,35.5522436
외나무약국,부산영도구,부산광역시 영도구 하나길 608 (신선동1가),19750407,129.0472935,35.0887833
단비약국,의왕시,경기도 의왕시 부곡시장길 33 (삼동),20120416,126.9525424,37.3187499
뉴삼성약국,부산진구,부산광역시 부산진구 가야대로 506 가야홈플러스 3층 (가야동),20081002,129.0273080,35.1524739
메디팜열린약국,수원팔달구,"경기도 수원시 팔달구 권광로 146 108호 (인계동, 벽산그랜드코아)",20120412,127.0318484,37.2604682
성심약국,이천시,경기도 이천시 중리천로33번길 4 (창전동),20131107,127.4418745,37.2806849
요한약국,대구수성구,"대구광역시 수성구 달구벌대로 3294 108호 (신매동, 시지퍼스트)",20160719,128.7159212,35.8364370
웰팜약국,성북구,"서울특별시 성북구 길음로13길 22 상가동 210호 (길음동, 길음뉴타운7단지두산위브아파트)",20160801,127.0192671,37.6092194
양재로하스약국,서초구,서울특별시 서초구 강남대로 48-6 1층 101호 (양재동),20160801,127.0400425,37.4691346
우리들약국,부산연제구,"부산광역시 연제구 명륜로2번길 7 1층 104호 (거제동, 삼익퓨쳐타워아파트)",20190812,129.0812825,35.1952609
오정약국,대전대덕구,대전광역시 대덕구 오정로 5 (오정동),20160801,127.4151618,36.3485161
한솔약국,금산군,충청남도 금산군 금산읍 비범로 31 (성모병원),20160801,127.4914442,36.1055749
삼부한솔약국,대전중구,"대전광역시 중구 태평로 83 108호 (태평동, 삼부스포렉스)",20160801,127.3937348,36.3241116
화순조은약국,화순군,전라남도 화순군 화순읍 충의로 107 (),20180806,126.9894842,35.0558443
소망주차장약국,의정부시,경기도 의정부시 흥선로138번길 20 101호 (의정부동),20140428,127.0419296,37.7407693
솔약국,울산중구,울산광역시 중구 북부순환도로 111 1층 (다운동),20140501,129.2752187,35.5557015
사랑약국,세종시,세종특별자치시 소정면 소정구길 169 169,20140501,127.1565186,36.7192185
종로메디칼약국,남양주시,경기도 남양주시 진접읍 해밀예당1로 30-25 (진접읍),20140501,127.1876577,37.7112839
건강약국,청주청원구,"충청북도 청주시 청원구 오창읍 중심상업로 31-4 109,110호 (엔젤오메가빌딩)",20140502,127.4290559,36.7139063
참사랑약국,김해시,"경상남도 김해시 함박로101번길 8 106호 (외동, 경원빌딩)",20140501,128.8655683,35.2328415
새율하약국,대구동구,대구광역시 동구 안심로 58 (율하동),20140507,128.6919180,35.8699085
영원약국,강남구,서울특별시 강남구 봉은사로 108 1층 (역삼동),20160816,127.0256122,37.5045463
사러가약국,영등포구,"서울특별시 영등포구 가마산로 468 1층 104호 (신길동, 레전드힐스)",20161028,126.9084257,37.5056669
태평양약국,강서구,서울특별시 강서구 등촌로 71 1층 (등촌동),20161031,126.8632171,37.5363925
새마산약국,창원마산회원구,"경상남도 창원시 마산회원구 3·15대로 679-1 (석전동, 동마산한의원)",20170327,128.5784458,35.2337091
풍산사랑약국,고양일산동구,"경기도 고양시 일산동구 무궁화로 237 (중산동, 4층 일부(중산동, 이마트 풍산점))",20140716,126.7871409,37.6738546
남부약국,부천시,경기도 부천시 경인로 238-7 (심곡본동),20140718,126.7819525,37.4829101
하나약국,남양주시,경기도 남양주시 화도읍 맷돌로 93 104호,20160427,127.3006523,37.6583066
청심약국,마포구,서울특별시 마포구 희우정로 42-9 101호 (합정동),20140717,126.9069618,37.5511615
동방약국,강서구,서울특별시 강서구 강서로 186 1층 (화곡동),20140721,126.8393862,37.5431069
자인약국,천안서북구,충청남도 천안시 서북구 오성로 51 (두정동),20140716,127.1329855,36.8306089
정성약국,부산서구,부산광역시 서구 충무대로 26-21 (암남동),20160908,129.0165076,35.0779198
다온약국,원주시,"강원도 원주시 혁신로 55 101호 (반곡동, 골든스퀘어1차)",20160908,127.9804354,37.3234325
시화메디칼약국,시흥시,"경기도 시흥시 중심상가2길 2 (정왕동, 씨드랜드프라자)",20170101,126.7358297,37.3458697
다민약국,남양주시,경기도 남양주시 오남읍 진건오남로 598 지층,20170102,127.2114703,37.6867635
한마음약국,구로구,서울특별시 구로구 도림로 67 (구로동),20170203,126.8910281,37.4895188
청수약국,은평구,서울특별시 은평구 진흥로 150 (녹번동),20140722,126.9266623,37.6086482
소망약국,구미시,경상북도 구미시 산호대로 793-1 (옥계동),20120402,128.4167299,36.1371643
온누리자혜약국,구로구,서울특별시 구로구 개봉로 66 (개봉동),20030708,126.8562540,37.4915599
인천굿모닝약국,인천남동구,"인천광역시 남동구 장승남로 37 1층 (만수동, 스카이프라자)",20121203,126.7364188,37.4436646
성남사랑약국,성남수정구,"경기도 성남시 수정구 수정로 201 (태평동, 신세계쉐덴)",20160523,127.1414110,37.4442863
메디팜경남약국,창원성산구,"경상남도 창원시 성산구 가양로124번길 17-16 (대방동, 동진메디칼)",20001016,128.7081618,35.2078613
메디팜중앙약국,창원마산회원구,경상남도 창원시 마산회원구 내서읍 삼계4길 17 (내서읍),20060601,128.5036432,35.2330030
동민약국,창원마산회원구,경상남도 창원시 마산회원구 3·15대로 605-3 세효빌딩 (석전동),19780721,128.5740791,35.2280613
부부약국,창원마산회원구,경상남도 창원시 마산회원구 3·15대로 728 (합성동),20051201,128.5818632,35.2369517
대한약국,창원마산회원구,경상남도 창원시 마산회원구 봉암북4길 8 (봉암동),20090119,128.5965875,35.2211944
대교약국,남해군,경상남도 남해군 남해읍 화전로96번가길 4 (남해읍),19970609,127.8950318,34.8400256
삼성대학약국,창원마산회원구,경상남도 창원시 마산회원구 구암남2길 1 (구암동),20151001,128.5908385,35.2430967
팔용프라자약국,창원의창구,"경상남도 창원시 의창구 남산로17번길 2 (팔용동, 팔용프라자약국)",20021101,128.6123143,35.2594711
우리약국,창원의창구,경상남도 창원시 의창구 북면 동곡로 16 지하1층,20150512,128.5858997,35.3176703
푸른약국,창원성산구,"경상남도 창원시 성산구 원이대로 776 (상남동, (상남동 ,성원2단지상가103호))",19890309,128.6939641,35.2164214
장약국,창원의창구,경상남도 창원시 의창구 의창대로211번길 1 (서상동),19890307,128.6208798,35.2620634
종합온누리약국,김해시,경상남도 김해시 진영읍 진영로 193 (진영읍),20040302,128.7342513,35.3030877
수영약국,창원성산구,"경상남도 창원시 성산구 반송로 144 1층 (반림동, 수영빌딩)",19870624,128.6710800,35.2360545
한마음약국,창원성산구,"경상남도 창원시 성산구 동산로 115 (상남동, 대동아파트)",19900330,128.6888555,35.2196206
비타민약국,사천시,경상남도 사천시 중앙로 122 (벌리동),20180723,128.0787771,34.9365690
성모약국,진주시,경상남도 진주시 창렬로 163 (상봉동),19760813,128.0748085,35.1994273
주민약국,진주시,경상남도 진주시 진양호로 344 (신안동),19880307,128.0680200,35.1832789
삼호약국,진주시,경상남도 진주시 솔밭로 125 1층 (상대동),20121012,128.1067097,35.1803286
명성약국,진주시,경상남도 진주시 진주대로 1059 (대안동),20030602,128.0837146,35.1940951
다정약국,진주시,경상남도 진주시 동진로 184 1층 (상대동),19880526,128.1112085,35.1795389
두성약국,진주시,경상남도 진주시 도동로 214 (하대동),19880920,128.1222925,35.1894441
반도약국,진주시,경상남도 진주시 진주대로 1064 (대안동),19970716,128.0840547,35.1945109
강남약국,울산남구,울산광역시 남구 삼산로 266 (삼산동),20060216,129.3362740,35.5388138
남방약국,창원진해구,경상남도 창원시 진해구  충장로329번길 23-1 (경화동),19660503,128.6878552,35.1557656
친우약국,창원진해구,경상남도 창원시 진해구 웅천중로51번길 2 (남문동),19821222,128.7496936,35.1105119
신명약국,창원진해구,경상남도 창원시 진해구 벚꽃로 56-2 (송학동),19730831,128.6625011,35.1507841
김약국,창원진해구,경상남도 창원시 진해구 제황로80번길 2 1층 (충무동),19740412,128.6669880,35.1511325
삼일온누리약국,사천시,경상남도 사천시 중앙로 69 (동금동),19711105,128.0759104,34.9323826
명성약국,창원마산합포구,경상남도 창원시 마산합포구 산호북6길 26 (산호동),20060131,128.5868554,35.2190947
천일약국,사천시,경상남도 사천시 건어시장길 28 (동금동),19620908,128.0758264,34.9284082
한창약국,김해시,경상남도 김해시 가락로 102 (서상동),19990303,128.8813274,35.2355481
고려약국,김해시,경상남도 김해시 진례면 송현로 13 (진례면),19770609,128.7498109,35.2489466
대자연약국,양산시,경상남도 양산시 하북면 신평로 56 (),20110919,129.0872932,35.4932995
김약국,거제시,"경상남도 거제시 거제중앙로 1878-1 104호 (고현동, 제원빌딩)",19831128,128.6245760,34.8859732
시민약국,거제시,경상남도 거제시 거제면 읍내로2길 30 (거제면),19830420,128.5903197,34.8503764
율하온누리약국,김해시,경상남도 김해시 율하3로 21 (율하동),20090424,128.8126674,35.1705016
시민약국,거창군,경상남도 거창군 거창읍 강남로 196 (),19740808,127.9186516,35.6852932
거창약국,거창군,경상남도 거창군 거창읍 강남로 204 (거창읍),19830720,127.9193144,35.6856623
진영명문약국,김해시,경상남도 김해시 진영읍 진영로 210 210,19830810,128.7359317,35.3025513
메디팜현대약국,남해군,경상남도 남해군 남해읍 망운로 4 (남해읍),20040903,127.8936892,34.8382731
삼성약국,밀양시,경상남도 밀양시 북성로 11-2 (내이동),19680817,128.7442023,35.4984710
햇님약국,김해시,경상남도 김해시 분성로 444 (삼정동),20150601,128.8947089,35.2347564
웰빙플러스약국,부산연제구,부산광역시 연제구  반송로 88 (연산동),20130401,129.0893312,35.1909588
우리온누리약국,부산진구,부산광역시 부산진구 서면로 48 현경빌딩 1층 (부전동),20180702,129.0580363,35.1549519
부산역온누리약국,부산동구,부산광역시 동구 중앙대로 197 1층 (초량동),20130510,129.0392144,35.1151090
덕인약국,부산해운대구,부산광역시 해운대구 우동2로 16 (우동),20130513,129.1605009,35.1661529
북부산약국,부산사상구,부산광역시 사상구 가야대로 266 (주례동),20131202,129.0016988,35.1501138
웰빙약국,부산남구,"부산광역시 남구 수영로 203 1층 (대연동, 대연 메디칼센터)",20170601,129.0889185,35.1352050
1호선 범일약국,부산동구,부산광역시 동구 범일로 108 지하 1층 17호 (범일동),20171116,129.0596681,35.1396159
대연약국,부산남구,부산광역시 남구 수영로 239 (대연동),20130712,129.0927874,35.1353732
만덕신동방약국,부산북구,부산광역시 북구 덕천로 298 (만덕동),20130722,129.0363942,35.2094209
신성약국,부산동래구,"부산광역시 동래구 충렬대로238번길 7 118호 (수안동, 성완세띠앙)",20130801,129.0854975,35.2010602
강림 온누리 약국,부산동래구,"부산광역시 동래구 충렬대로237번길 3 (수안동, 로덴빌딩)",20170703,129.0850816,35.2017053
건강한약국,부산기장군,부산광역시 기장군 기장읍 기장대로 83-10 (기장읍),20130903,129.2053753,35.2048516
드림약국,부산기장군,부산광역시 기장군 정관읍 정관로 495 1층 102호,20130923,129.1706654,35.3259201
메디칼약국,부산북구,부산광역시 북구 만덕대로 12-1 (덕천동),20131021,129.0065972,35.2101894
메디컬나라약국,진주시,경상남도 진주시 향교로 13 (수정동),20140203,128.0840578,35.1978370
삼성약국,하동군,경상남도 하동군 하동읍 화심길 51-9 (),20181213,127.7378407,35.0828990
화왕산약국,창녕군,경상남도 창녕군 창녕읍 명덕로 66-1 (),20111216,128.4964255,35.5425206
드림약국,울산북구,"울산광역시 북구 매곡로 115 105,106호 (매곡동)",20130808,129.3554858,35.6426544
온누리유강약국,김해시,경상남도 김해시 장유로 180 (부곡동),20020828,128.8055333,35.2070828
갑오약국,김해시,"경상남도 김해시 대청로 117 2동 217.312호 (대청동, 대청프라자)",20020817,128.7981311,35.1853199
부강약국,울산남구,"울산광역시 남구 삼산로 257 (달동, 금양빌딩)",20021104,129.3350913,35.5391834
건강온누리약국,창원성산구,경상남도 창원시 성산구 동산로 124 5층 521호 (상남동),20021109,128.6915303,35.2193191
부성약국,창원마산회원구,경상남도 창원시 마산회원구 3·15대로 686 (석전동),20171201,128.5794819,35.2337577
배약국,거창군,경상남도 거창군 거창읍 중앙로 131-2 (거창읍),20030130,127.9126962,35.6871078
밝은약국,울산북구,울산광역시 북구 호계로 283 (호계동),20030221,129.3506088,35.6284742
우리들약국,울산동구,울산광역시 동구 대학길 72 (화정동),20070607,129.4216347,35.4984672
코아약국,김해시,경상남도 김해시 능동로167번길 1 (부곡동),20030604,128.8089716,35.2031928
한솔약국,창원진해구,"경상남도 창원시 진해구 동진로 138 (덕산동, 송림타운 125호)",20031120,128.7026813,35.1449748
김약국,창녕군,경상남도 창녕군 남지읍 동포로 13 (남지읍),20040127,128.4815076,35.3903888
태양약국,울산북구,울산광역시 북구 염포로 517 (양정동),20040214,129.3846683,35.5452853
동화약국,사천시,"경상남도 사천시 중앙로 127 (벌리동, 장이비인후과)",20151123,128.0785041,34.9371301
메디팜새가야약국,김해시,"경상남도 김해시 삼계중앙로 29 101(일부)호 (삼계동, 일송프라자)",20040302,128.8681259,35.2607341
미래팜강민약국,창원의창구,경상남도 창원시 의창구 동읍 의창대로915번길 2 (청담빌딩),20040329,128.6907768,35.2793499
진영한마음약국,김해시,경상남도 김해시 진영읍 진영로 187-1 (진영읍),20040401,128.7337028,35.3031200
청솔약국,통영시,경상남도 통영시  중앙로 309 (무전동),20060701,128.4282062,34.8579297
샛별약국,밀양시,경상남도 밀양시 약산로 42 (내이동),20040625,128.7493542,35.4925165
친절한약국,양산시,"경상남도 양산시 서창로 210-1 (삼호동, 친절약국)",20040802,129.1740866,35.4174398
진주플러스약국,진주시,경상남도 진주시 대신로 304 (상대동),20070611,128.1177225,35.1875792
보명약국,밀양시,경상남도 밀양시 중앙로 119-1 (가곡동),20100402,128.7654271,35.4764931
우리약국,사천시,경상남도 사천시 사남면 조동길 49-21 (사남면),20150910,128.0668489,35.0603319
온누리큰사랑약국,양산시,경상남도 양산시 덕계로 45 (덕계동),20020722,129.1492232,35.3724343
신약국,창원마산합포구,경상남도 창원시 마산합포구 진동면 삼진의거대로 640 (진동면),20030927,128.4875708,35.1156024
대지경남약국,창녕군,경상남도 창녕군 대지면 우포2로 984 (대지면),20000902,128.4687295,35.5547994
아세아약국,창녕군,경상남도 창녕군 영산면 연지길 8 (영산면),19880325,128.5269852,35.4563318
고려약국,울산남구,울산광역시 남구 문수로335번길 6 (옥동),19911120,129.2906083,35.5355773
이방약국,창녕군,경상남도 창녕군 이방면 이방로 955-1 955,19830808,128.3824647,35.6011216
명성약국,창녕군,경상남도 창녕군 창녕읍 옥만길 19 (창녕읍),19850712,128.4981515,35.5412130
대학튼튼약국,양산시,경상남도 양산시 물금읍 화합2길 4 (),20180712,129.0088119,35.3287669
함안약국,함안군,경상남도 함안군 가야읍 가야로 45 (가야읍),19710406,128.4060904,35.2777794
하약국,함양군,경상남도 함양군 함양읍 함양로 1128 (함양읍),19620911,127.7273616,35.5193632
안의 하약국,함양군,경상남도 함양군 안의면 금성길 4 (안의면),19660307,127.8121008,35.6287341
제일약국,남해군,경상남도 남해군 남해읍 화전로 70 (남해읍),20001001,127.8943377,34.8374760
백중약국,합천군,경상남도 합천군 삼가면 일부4길 23 (삼가면),19820709,128.1217707,35.4128653
수강약국,합천군,경상남도 합천군 초계면 초계중앙로 86 (초계면),19690512,128.2694846,35.5588313
시장약국,합천군,경상남도 합천군 삼가면 삼가중앙길 25-1 (삼가면),20140722,128.1222622,35.4135757
태평양제일약국,창원성산구,경상남도 창원시 성산구 원이대로 578 구트병원빌딩 (중앙동),20150612,128.6779428,35.2283755
선명약국,울산동구,울산광역시 동구 방어진순환도로 793 (전하동),20061211,129.4305654,35.5125513
진영약국,김해시,경상남도 김해시 진영읍 여래로 31-1 (진영읍),19900608,128.7347583,35.3032414
이선약국,의령군,경상남도 의령군 의령읍 충익로 23-2 (의령읍),19991102,128.2618844,35.3183073
한독약국,창원마산합포구,경상남도 창원시 마산합포구 합포로 28 (남성동),20150102,128.5754667,35.2030447
초록약국,창녕군,경상남도 창녕군 창녕읍 창녕대로 126 (창녕읍),19901201,128.4984901,35.5343061
창원한사랑약국,창원성산구,"경상남도 창원시 성산구 마디미로21번길 18 (상남동, 새마음프라자)",20011119,128.6859678,35.2213466
학성약국,울산중구,울산광역시 중구 염포로 17 1층 (반구동),20150924,129.3433932,35.5594746
온누리한사랑약국,양산시,"경상남도 양산시 양산역6길 3 108호 (중부동, 센트럴스위트)",20150504,129.0266014,35.3378100
한마음약국,울산북구,울산광역시 북구 호계로 292 (호계동),20010907,129.3512709,35.6292221
역전제일약국,창원의창구,"경상남도 창원시 의창구 의창대로62번길 7 (팔용동, 우신빌딩)",19991230,128.6081263,35.2565410
대성약국,울산동구,울산광역시 동구 방어진순환도로 1118-1 (서부동),19920925,129.4265657,35.5393863
메디팜울산약국,울산울주군,울산광역시 울주군 범서읍 천상중앙길 86 (범서읍),19980527,129.2269437,35.5629401
국민약국,김해시,경상남도 김해시 내외중앙로 62 (내동),20090410,128.8671723,35.2353757
새유명약국,울산중구,울산광역시 중구 태화로 172 1층 (태화동),20190801,129.2945312,35.5524503
무룡메디칼약국,울산북구,울산광역시 북구 화봉로 75 (화봉동),19960720,129.3673229,35.5886144
건강약국,창원의창구,"경상남도 창원시 의창구 창원천로 34 121동 226호 (대원동, 대원 꿈에그린)",19900621,128.6488024,35.2344087
부민약국,울산동구,울산광역시 동구 방어진순환도로 787 (전하동),20120501,129.4305283,35.5120848
메디팜피아노약국,창원성산구,경상남도 창원시 성산구 마디미로21번길 17 상남동피아노빌딩 (상남동),20190104,128.6862279,35.2216856
세계로약국,창원마산회원구,경상남도 창원시 마산회원구 3·15대로 731 (합성동),19991214,128.5814465,35.2375731
보민약국,양산시,경상남도 양산시 신기서길 31 (신기동),19930902,129.0411540,35.3526924
수산제일약국,밀양시,경상남도 밀양시 하남읍 수산중앙로 14 (하남읍),19930510,128.7068711,35.3745319
현대약국,울산동구,울산광역시 동구 대학길 40 (화정동),19931029,129.4200933,35.4985014
옥교온누리약국,울산중구,울산광역시 중구 옥골샘4길 1 (옥교동),20100601,129.3244994,35.5561894
우리대학약국,창원의창구,경상남도 창원시 의창구 사화로 396 (팔용동),20110228,128.6428483,35.2369404
서광약국,울산중구,"울산광역시 중구 화진길 13-2 1층 101-1호 (태화동, 리버스위트)",20150624,129.3086250,35.5549833
충무시장약국,통영시,"경상남도 통영시 통영해안로 335-8 (중앙동, 충무로약국)",20170426,128.4238977,34.8448389
롯데약국,함안군,경상남도 함안군 가야읍 함안대로 564 (롯데약국),20010402,128.4051207,35.2767178
장생포약국,울산남구,울산광역시 남구 장생포고래로 217 (장생포동),20070104,129.3778734,35.5029418
무거우리들약국,울산남구,울산광역시 남구 북부순환도로 5 1층 101호 (무거동),20190909,129.3252804,35.5424902
소망약국,김해시,경상남도 김해시 활천로 190 (어방동),19940620,128.9006946,35.2419178
성민약국,창원마산회원구,경상남도 창원시 마산회원구 내서읍 중리상곡로 78 (내서읍),20000729,128.5087651,35.2476121
성심약국,김해시,경상남도 김해시 가락로 32-1 (부원동),20070621,128.8824533,35.2294287
청솔약국,울산동구,울산광역시 동구 동해안로 49 (동부동),20010921,129.4285943,35.5423582
더조은 온누리약국,김해시,경상남도 김해시 진영읍 본산로 15-17 106호,20180725,128.7366013,35.3066815
조은약국,밀양시,경상남도 밀양시 중앙로 413 1층 102호 (내이동),20111221,128.7477682,35.4965697
시민약국,통영시,경상남도 통영시 중앙로 153 (중앙동),19950106,128.4234326,34.8453184
메디팜새보람약국,창원성산구,"경상남도 창원시 성산구 신촌로 102 라동 107호 (신촌동, 양곡상가아파트)",19900328,128.6285337,35.1999942
창원대우당약국,창원의창구,"경상남도 창원시 의창구 원이대로189번길 30 (명서동, 오시오상가)",20070711,128.6456979,35.2488597
서울메디컬약국,창원성산구,"경상남도 창원시 성산구 상남로 73 (상남동, 서울메디컬센터)",20070716,128.6798691,35.2206377
새동산약국,사천시,경상남도 사천시 사천읍 진삼로 1480 (사천읍),19941202,128.0862919,35.0834425
삼성약국,창원마산회원구,경상남도 창원시 마산회원구 팔용로 163 (구암동),20080602,128.5911428,35.2435364
정우약국,창원의창구,"경상남도 창원시 의창구 원이대로 587 (용호동, 정우상가)",20000825,128.6794813,35.2284140
한양약국,의령군,경상남도 의령군 의령읍 의병로 217 (의령읍),20060830,128.2604502,35.3197351
혜민약국,창원진해구,"경상남도 창원시 진해구 안청북로 33 102호 (청안동, 풍림근린상가)",20080722,128.8065814,35.1043447
범어무궁화약국,양산시,경상남도 양산시 물금읍 동중1길 5 1층,20160801,129.0039482,35.3290732
부부약국,울산중구,울산광역시 중구 다운로 46 1층 (다운동),20000519,129.2721894,35.5587008
연화약국,김해시,"경상남도 김해시 번화1로56번길 15 3층 (대청동, 롯데마트)",20070911,128.8012981,35.1930379
봄봄약국,울산중구,울산광역시 중구  화합로 361 1층 (반구동),20150413,129.3407154,35.5582253
주약동이상약국,진주시,경상남도 진주시 진주대로816번길 20 (주약동),20001204,128.0958780,35.1741510
건강온누리약국,창원진해구,경상남도 창원시 진해구 충장로657번길 28 (장천동),20160823,128.7065878,35.1305520
보라약국,울산남구,울산광역시 남구 화합로194번길 15 (삼산동),20081001,129.3411712,35.5420867
광제약국,울산중구,울산광역시 중구 동천5길 16 1층 (서동),20010908,129.3465501,35.5813719
이종범약국,양산시,경상남도 양산시 북정11길 3 1층 (북정동),20150101,129.0483310,35.3619162
효성약국,울산울주군,울산광역시 울주군 언양읍 동문길 65 (언양읍),20010109,129.1250339,35.5654241
남창중앙약국,울산울주군,울산광역시 울주군 온양읍 남창강변로 36 (온양읍),20010323,129.2803346,35.4158535
부부약국,진주시,경상남도 진주시 망경로 294 (망경동),19980603,128.0853203,35.1852352
대우당약국,창원마산합포구,경상남도 창원시 마산합포구 3·15대로 240 (중앙동3가),20061004,128.5675274,35.1995779
영광약국,창원마산회원구,경상남도 창원시 마산회원구 내서읍 호원로 180-1 (내서읍),20040202,128.5223767,35.2501247
메디팜영제약국,김해시,"경상남도 김해시 장유로 232 101호 (부곡동, 코아상가)",20010718,128.8093468,35.2035086
비치약국,통영시,경상남도 통영시 중앙로 89 (서호동),20080222,128.4188985,34.8420223
팜서울약국,김해시,경상남도 김해시 내외중앙로 84 (내동),20130520,128.8675561,35.2373700
터미널약국,남해군,경상남도 남해군 남해읍 화전로 85-1 (남해읍),19990701,127.8938924,34.8389248
신명약국,김해시,경상남도 김해시 가야로38번길 4 (삼계동),20060605,128.8644254,35.2695025
럭키약국,양산시,경상남도 양산시 덕계로 113 (덕계동),19990818,129.1538916,35.3773331
동화약국,고성군,경상남도 고성군 고성읍 중앙로43번길 16 1층,20131230,128.3252479,34.9746786
새희망약국,창원진해구,경상남도 창원시 진해구 용원로 17 (용원동),20160302,128.8114071,35.1003737
한나약국,김해시,경상남도 김해시 분성로727번길 11 (지내동),20050523,128.9224297,35.2315537
무성약국,양산시,경상남도 양산시 물금읍 청운로 178 115~116호,20160725,129.0021062,35.3168889
주약국,울산울주군,울산광역시 울주군 온양읍 온양로 105 (),20171018,129.2834090,35.4102954
신일약국,양산시,경상남도 양산시 신기로 24 (신기동),20000703,129.0431707,35.3527815
동그라미약국,창원마산합포구,경상남도 창원시 마산합포구 반월동5길 6 (중앙동1가),20000708,128.5628894,35.1900216
바이오약국,밀양시,경상남도 밀양시 중앙로 396 (내이동),20010130,128.7498593,35.4963689
대동우리약국,김해시,경상남도 김해시 대동면 동남로49번길 15-5 (대동면),19990816,128.9935448,35.2373280
더조은약국,통영시,경상남도 통영시 광도면 죽림1로 17-31 1층 102호 (아담 트리플),20160509,128.4150114,34.8789242
대지약국,함안군,경상남도 함안군 대산면 대산중앙로 204 (대산면),20000727,128.4293603,35.3519231
새가람약국,진주시,경상남도 진주시 금산면 금산로 80 (금산면),19991124,128.1452059,35.2145209
정민약국,진주시,"경상남도 진주시 가호로 28 115호 (가좌동, 가좌주공아파트)",20001005,128.1094798,35.1632277
보은약국,울산동구,울산광역시 동구 방어진순환도로 927-1 (서부동),20001012,129.4325933,35.5239476
한빛약국,창원의창구,"경상남도 창원시 의창구 의안로31번길 28-10 (중동, 이제메디칼)",20140303,128.6211525,35.2648702
샘물약국,진주시,경상남도 진주시 진양호로 457 (인사동),20040310,128.0759944,35.1907190
우리들약국,울산울주군,울산광역시 울주군 언양읍 헌양길 175 (언양읍),20151124,129.1169795,35.5670633
강남약국,울산울주군,울산광역시 울주군 삼남면 중평로 54 (삼남면),20080917,129.1216931,35.5596173
효성약국,울산남구,울산광역시 남구 삼산로 49 1층 (신정동),20130227,129.3130986,35.5340028
북정약국,양산시,경상남도 양산시 북정로 59-1 1층 (북정동),20011128,129.0469372,35.3591693
수성약국,창원의창구,"경상남도 창원시 의창구 원이대로 283 (봉곡동, 청마상가)",20010611,128.6509948,35.2427123
프라임약국,울산남구,울산광역시 남구 수암로 113 (신정동),20010723,129.3199653,35.5287553
편안한약국,울산남구,울산광역시 남구 삼산로 112 (달동),20010807,129.3199353,35.5352071
중앙프라자약국,합천군,경상남도 합천군 합천읍 충효로 75 (합천읍),20010830,128.1609945,35.5672167
대영온누리약국,진주시,경상남도 진주시 진주대로 918 (칠암동),20010910,128.0897007,35.1822299
조은약국,양산시,"경상남도 양산시 두전길 42 (어곡동, 삼성파크빌상가 102호)",20020315,129.0280918,35.3818202
다정약국,울산중구,울산광역시 중구 다운로 47 (다운동),20010913,129.2717740,35.5585874
팔용약국,창원의창구,"경상남도 창원시 의창구 의창대로 72 (팔용동, 현대메디칼)",20020423,128.6082451,35.2574967
화봉약국,울산북구,울산광역시 북구 화봉로 60 (연암동),20121101,129.3656863,35.5880088
금강약국,양산시,경상남도 양산시 상북면 양산대로 1400 (상북면),20140422,129.0513966,35.3938006
거제프라자약국,거제시,경상남도 거제시 거제중앙로 1916-1 (고현동),20030227,128.6229466,34.8891526
푸른약국,울산울주군,울산광역시 울주군 범서읍 구영로 100 (구영프라자 1층 102호),20120213,129.2413563,35.5736526
부원약국,김해시,경상남도 김해시 호계로 411 (부원동),20020410,128.8849759,35.2272162
푸른약국,김해시,경상남도 김해시 내외중앙로 57 경남프라자 102호 (내동),20180306,128.8664505,35.2352429
연산약국,부산연제구,부산광역시 연제구 반송로 21 (연산동),20130102,129.0832198,35.1875755
하나로약국,부산해운대구,"부산광역시 해운대구 신반송로 171 102호 (반송동, 삼한그린타운상가)",20131029,129.1607171,35.2276246
센텀맑은약국,부산해운대구,"부산광역시 해운대구 센텀남대로 50 103호 (우동, 센텀임페리얼타워)",20130128,129.1312936,35.1681164
대림약국,부산북구,"부산광역시 북구 금곡대로 268 101호 (화명동, 대림타운상가)",20151231,129.0154964,35.2308715
플러스온누리약국,부산남구,부산광역시 남구 수영로 340 (대연동),20130206,129.1029587,35.1384660
리치온누리약국,부산사하구,"부산광역시 사하구 낙동대로 388 B-103-1호 (당리동, 경성리치W아파트)",20130219,128.9762034,35.1031666
다원약국,부산기장군,부산광역시 기장군 기장읍 읍내로 101 (기장읍),20130222,129.2153644,35.2452863
왕약국,부산북구,부산광역시 북구  금곡대로199번길 3 (화명동),20130225,129.0105906,35.2265698
푸른솔약국,부산북구,부산광역시 북구 만덕대로 58 (덕천동),20130304,129.0114366,35.2113826
테라스약국,부산기장군,부산광역시 기장군 정관읍 정관로 581 109호,20181228,129.1775237,35.3212388
동산약국,대전유성구,"대전광역시 유성구 죽동로297번길 72 103호 (죽동, KJ빌딩)",20160615,127.3387716,36.3700362
미평약국,여수시,전라남도 여수시 미평로 58 (미평동),20190222,127.7086780,34.7680860
한성약국,대구북구,대구광역시 북구 칠곡중앙대로 461 (관음동),20160620,128.5488028,35.9369881
온누리성모약국,부천시,경기도 부천시 소사로327번길 36 (소사동),19780221,126.7924768,37.4863125
이편한약국,광명시,"경기도 광명시 오리로 801 (하안동, e편한세상센트레빌아파트 가동상가 105호)",20100223,126.8674605,37.4686239
가은약국,관악구,서울특별시 관악구 봉천로 486 (봉천동),20020821,126.9537506,37.4816375
송파사거리약국,송파구,서울특별시 송파구 송파대로 387 1층 (석촌동),20100909,127.1095673,37.5019388
공원온누리약국,영등포구,서울특별시 영등포구 신길로 252 (영등포동),20060529,126.9117698,37.5141257
동의당한약국,구로구,서울특별시 구로구 도림로 31 2층 (구로동),20010419,126.8879639,37.4872107
디큐브약국,구로구,"서울특별시 구로구 경인로 662 (신도림동, 디큐브시티 타워동 지하1층)",20111121,126.8884274,37.5083236
미소약국,부천시,경기도 부천시 조종로 45-4 (원미동),20090609,126.7899618,37.4929192
하하약국,광진구,"서울특별시 광진구 면목로 127 2층 214호 (중곡동, 신성그랜드타워)",20151228,127.0804274,37.5650719
대성약국,구로구,"서울특별시 구로구 개봉로3길 35 (개봉동, 성은빌딩)",20060418,126.8543242,37.4861749
중앙약국,부산북구,부산광역시 북구 만덕대로 41 (덕천동),19910208,129.0094549,35.2113986
방이메디칼약국,송파구,서울특별시 송파구 가락로 277 (방이동),20020411,127.1195397,37.5126353
서울온누리약국,강남구,서울특별시 강남구 역삼로77길 23 (대치동),20020705,127.0559781,37.5039541
온누리좋은약국,구로구,"서울특별시 구로구 가마산로 248 (구로동, 대신빌딩)",20080916,126.8883270,37.4947157
윤약국,서대문구,서울특별시 서대문구 수색로2길 16-1 (남가좌동),20160518,126.9162603,37.5695911
새우리약국,합천군,경상남도 합천군 삼가면 삼가중앙길 25-2 (),20160520,128.1223421,35.4136309
중앙현대약국,울산남구,울산광역시 남구 문수로480번길 6 (신정동),20160620,129.3055561,35.5320604
